[
  {
    "country": "United States", 
    "id": "4b86bcc0f964a520e09931e3", 
    "latitude": 40.738269, 
    "locality": "New York", 
    "longitude": -73.981749, 
    "name": "Oriental Kitchen", 
    "phone": "", 
    "postal_code": "10010", 
    "region": "NY", 
    "street_address": "E. 23rd St.", 
    "website": ""
  }, 
  {
    "country": "United States", 
    "id": "4f327c2e19836c91c7dc61ab", 
    "latitude": 40.71319, 
    "locality": "New York", 
    "longitude": -73.992418, 
    "name": "Herbal Medicine Store", 
    "phone": "(212) 608-5961", 
    "postal_code": "", 
    "region": "NY", 
    "street_address": "19 Pike St.", 
    "website": ""
  }, 
  {
    "country": "United States", 
    "id": "5117a2fae4b0f8326f68a263", 
    "latitude": 40.749727867141, 
    "locality": "New York", 
    "longitude": -73.9783072471619, 
    "name": "Audrey Cafe & Lounge", 
    "phone": "(212) 686-1600", 
    "postal_code": "10016", 
    "region": "NY", 
    "street_address": "120 East 39 St.", 
    "website": "http://tuscany.stgilesnewyork.com"
  }, 
  {
    "country": "United States", 
    "id": "4aedb305f964a5203ace21e3", 
    "latitude": 40.8156902003881, 
    "locality": "New York", 
    "longitude": -73.9434131067203, 
    "name": "Cafe 22", 
    "phone": "(212) 281-8500", 
    "postal_code": "", 
    "region": "NY", 
    "street_address": "Adam Clayton Powell Blv", 
    "website": ""
  }, 
  {
    "country": "United States", 
    "id": "4a26e0e1f964a520e97e1fe3", 
    "latitude": 40.734276810122, 
    "locality": "New York", 
    "longitude": -73.9934851984257, 
    "name": "Di Fiore Marquet Cafe", 
    "phone": "(212) 229-9313", 
    "postal_code": "10013", 
    "region": "NY", 
    "street_address": "15 E. 12th St.", 
    "website": ""
  }, 
  {
    "country": "United States", 
    "id": "4f8d9ab1e4b021fa8b5f0fdc", 
    "latitude": 40.749076, 
    "locality": "New York", 
    "longitude": -73.982288, 
    "name": "Euro RSCG Worldwide PR Healthcare Team Room", 
    "phone": null, 
    "postal_code": "10016", 
    "region": "NY", 
    "street_address": "200 Madison Ave.", 
    "website": ""
  }, 
  {
    "country": "United States", 
    "id": "4d0f7f12cf09a143b6ba250f", 
    "latitude": 40.719097165142, 
    "locality": "New York", 
    "longitude": -73.9902829031375, 
    "name": "Berkli Parc", 
    "phone": "(212) 966-2737", 
    "postal_code": "10002", 
    "region": "NY", 
    "street_address": "63 Delancey St.", 
    "website": ""
  }, 
  {
    "country": "United States", 
    "id": "512aa118e4b0202936ab05dc", 
    "latitude": 40.7806479300865, 
    "locality": "New York", 
    "longitude": -73.9491763064871, 
    "name": "1742 Wine Bar And Lounge", 
    "phone": null, 
    "postal_code": "10128", 
    "region": "NY", 
    "street_address": "", 
    "website": ""
  }, 
  {
    "country": "United States", 
    "id": "4f32a29619836c91c7eaf281", 
    "latitude": 40.72896, 
    "locality": "New York", 
    "longitude": -73.9885, 
    "name": "Hinomaru", 
    "phone": "(212) 254-6363", 
    "postal_code": "", 
    "region": "NY", 
    "street_address": "25 Saint Marks Pl.", 
    "website": ""
  }, 
  {
    "country": "United States", 
    "id": "4c5f23f713791b8df3b04caf", 
    "latitude": 40.759268594767, 
    "locality": "New York", 
    "longitude": -73.9813873581096, 
    "name": "Adel's Famous Halal", 
    "phone": "", 
    "postal_code": "10020", 
    "region": "NY", 
    "street_address": "1221 Ave. Of The Americas", 
    "website": ""
  }, 
  {
    "country": "United States", 
    "id": "4f3202ec19833175d6098508", 
    "latitude": 40.7108, 
    "locality": "New York", 
    "longitude": -74.008797, 
    "name": "New Hing Wah NY", 
    "phone": "(212) 349-0515", 
    "postal_code": "", 
    "region": "NY", 
    "street_address": "150 Fulton St.", 
    "website": ""
  }, 
  {
    "country": "United States", 
    "id": "51e5d3c0454a227769d0c065", 
    "latitude": 40.7050260778169, 
    "locality": "New York", 
    "longitude": -74.0080690383911, 
    "name": "Matchmaker Cafe", 
    "phone": "(212) 712-0500", 
    "postal_code": "10005", 
    "region": "NY", 
    "street_address": "75 Wall St.", 
    "website": ""
  }, 
  {
    "country": "United States", 
    "id": "50bd21b4e4b00ddbb4521e59", 
    "latitude": 40.7506481597537, 
    "locality": "New York", 
    "longitude": -73.9861795255041, 
    "name": "The Keg Room", 
    "phone": null, 
    "postal_code": "10018", 
    "region": "NY", 
    "street_address": "53 W. 36th St.", 
    "website": ""
  }, 
  {
    "country": "United States", 
    "id": "4effc85af9abd5b390896782", 
    "latitude": 40.7254069834424, 
    "locality": "New York", 
    "longitude": -73.9884521762624, 
    "name": "Joe's Weenie Palace", 
    "phone": null, 
    "postal_code": "10003", 
    "region": "NY", 
    "street_address": "", 
    "website": ""
  }, 
  {
    "country": "United States", 
    "id": "44e4541df964a52051371fe3", 
    "latitude": 40.725379, 
    "locality": "New York", 
    "longitude": -73.983596, 
    "name": "EasternBloc", 
    "phone": "(212) 777-2555", 
    "postal_code": "10009", 
    "region": "NY", 
    "street_address": "505 E. 6th St.", 
    "website": "http://www.easternblocnyc.com"
  }, 
  {
    "country": "United States", 
    "id": "4b9709fcf964a520c4f434e3", 
    "latitude": 40.729813, 
    "locality": "Brooklyn", 
    "longitude": -73.958467, 
    "name": "Paulie Gee\u2019s", 
    "phone": "(347) 987-3747", 
    "postal_code": "11222", 
    "region": "NY", 
    "street_address": "60 Greenpoint Ave.", 
    "website": "http://www.pauliegee.com"
  }, 
  {
    "country": "United States", 
    "id": "512fdeabe4b090128581ddb3", 
    "latitude": 40.87745, 
    "locality": "New York", 
    "longitude": -73.83898, 
    "name": "Vegans Delight", 
    "phone": null, 
    "postal_code": "10469", 
    "region": "NY", 
    "street_address": "3565 C Boston Rd.", 
    "website": ""
  }, 
  {
    "country": "United States", 
    "id": "4bfd6937b68d0f47e4bee857", 
    "latitude": 40.7567499360756, 
    "locality": "New York", 
    "longitude": -73.9921689033508, 
    "name": "Leisure Time Lounge", 
    "phone": null, 
    "postal_code": "10018", 
    "region": "NY", 
    "street_address": "625 8th Ave. (Pabt S. Term)", 
    "website": ""
  }, 
  {
    "country": "United States", 
    "id": "49bfec3af964a52035551fe3", 
    "latitude": 40.681249312787, 
    "locality": "Brooklyn", 
    "longitude": -73.9763253221806, 
    "name": "City Sub", 
    "phone": "(718) 398-2592", 
    "postal_code": "11217", 
    "region": "NY", 
    "street_address": "450 Bergen St.", 
    "website": ""
  }, 
  {
    "country": "United States", 
    "id": "4f1991e3e4b088d49ff5ae32", 
    "latitude": 40.77592, 
    "locality": "New York", 
    "longitude": -73.95315, 
    "name": "Fancy Deli", 
    "phone": null, 
    "postal_code": "10028", 
    "region": "NY", 
    "street_address": "", 
    "website": ""
  }, 
  {
    "country": "United States", 
    "id": "4ad357aef964a520e0e320e3", 
    "latitude": 40.7034308091991, 
    "locality": "New York", 
    "longitude": -74.0100352764977, 
    "name": "Davinci Pizza", 
    "phone": "(212) 635-2424", 
    "postal_code": "10004", 
    "region": "NY", 
    "street_address": "44 Water St.", 
    "website": ""
  }, 
  {
    "country": "United States", 
    "id": "4ac23730f964a5203a9820e3", 
    "latitude": 40.7409939469865, 
    "locality": "New York", 
    "longitude": -73.9906024932861, 
    "name": "Sagaponack", 
    "phone": "(212) 229-2226", 
    "postal_code": "10010", 
    "region": "NY", 
    "street_address": "4 W. 22nd St.", 
    "website": "http://www.sagaponacknyc.com"
  }, 
  {
    "country": "United States", 
    "id": "4c2fb8f2213c2d7f1e67315d", 
    "latitude": 40.7609974144851, 
    "locality": "New York", 
    "longitude": -73.9907477557704, 
    "name": "Yum Yum 3", 
    "phone": "(212) 956-0639", 
    "postal_code": "10036", 
    "region": "NY", 
    "street_address": "658 9th Ave.", 
    "website": "http://www.yumyum3.com"
  }, 
  {
    "country": "United States", 
    "id": "5146219be4b02de94ef09a43", 
    "latitude": 40.8038514181672, 
    "locality": "New York", 
    "longitude": -73.9558003298713, 
    "name": "Harlem lounge", 
    "phone": null, 
    "postal_code": "", 
    "region": "NY", 
    "street_address": "2131 Harlem Lounge", 
    "website": ""
  }, 
  {
    "country": "United States", 
    "id": "4a02e559f964a52072711fe3", 
    "latitude": 40.726779, 
    "locality": "New York", 
    "longitude": -73.9916389, 
    "name": "Antik", 
    "phone": null, 
    "postal_code": "10079", 
    "region": "NY", 
    "street_address": "356 Bowery", 
    "website": ""
  }, 
  {
    "country": "United States", 
    "id": "4c2e20dce307d13a07fb0eda", 
    "latitude": 40.76290372, 
    "locality": "New York", 
    "longitude": -73.99302329, 
    "name": "Moroccan Grill", 
    "phone": "(212) 582-2609", 
    "postal_code": "10036", 
    "region": "NY", 
    "street_address": "691 10th Ave.", 
    "website": ""
  }, 
  {
    "country": "United States", 
    "id": "50202b0ee4b0cabb110c01a2", 
    "latitude": 40.7146104639868, 
    "locality": "New York", 
    "longitude": -74.0174031584914, 
    "name": "Laughing Man Coffee & Tea", 
    "phone": "(212) 227-3240", 
    "postal_code": "10282", 
    "region": "NY", 
    "street_address": "1 N. End Ave.", 
    "website": ""
  }, 
  {
    "country": "United States", 
    "id": "4e4e4c6bbd4101d0d7a7242f", 
    "latitude": 40.719677, 
    "locality": "New York", 
    "longitude": -73.988559, 
    "name": "Chickie Pig's Brick Oven & Pizzeria", 
    "phone": "(212) 254-9972", 
    "postal_code": "10002", 
    "region": "NY", 
    "street_address": "121 Ludlow St.", 
    "website": ""
  }, 
  {
    "country": "United States", 
    "id": "4cc702a338aaa0937c9d2162", 
    "latitude": 40.75455096, 
    "locality": "New York", 
    "longitude": -73.97393, 
    "name": "La Cense Beef Truck", 
    "phone": null, 
    "postal_code": "", 
    "region": "NY", 
    "street_address": "47th St.", 
    "website": ""
  }, 
  {
    "country": "United States", 
    "id": "434b0080f964a520a0281fe3", 
    "latitude": 40.742567, 
    "locality": "New York", 
    "longitude": -73.987145, 
    "name": "The One Club", 
    "phone": "(212) 979-1900", 
    "postal_code": "10010", 
    "region": "NY", 
    "street_address": "21 E. 26 St., 5th Fl", 
    "website": ""
  }, 
  {
    "country": "United States", 
    "id": "4f32ab9619836c91c7ee50f4", 
    "latitude": 40.764204, 
    "locality": "New York", 
    "longitude": -73.970551, 
    "name": "Sale Pepe Delicatessen and Pizza", 
    "phone": "(800) 894-6095", 
    "postal_code": "", 
    "region": "NY", 
    "street_address": "43 E. 60th St.", 
    "website": ""
  }, 
  {
    "country": "United States", 
    "id": "5078c611e4b07d24b00468ee", 
    "latitude": 40.7849586298427, 
    "locality": "New York", 
    "longitude": -73.9770599569758, 
    "name": "Cocina Economica", 
    "phone": "(212) 501-7755", 
    "postal_code": "10024", 
    "region": "NY", 
    "street_address": "452 Amsterdam Ave.", 
    "website": ""
  }, 
  {
    "country": "United States", 
    "id": "4af1c4a1f964a520fae221e3", 
    "latitude": 40.7360752205565, 
    "locality": "New York", 
    "longitude": -73.9873101152291, 
    "name": "Lady Mendl's Tea Salon", 
    "phone": "(212) 533-4466", 
    "postal_code": "10003", 
    "region": "NY", 
    "street_address": "56 Irving Pl.", 
    "website": "http://innatirving.com"
  }, 
  {
    "country": "United States", 
    "id": "4faed8dae4b08594937e6af5", 
    "latitude": 40.7456303580593, 
    "locality": "New York", 
    "longitude": -73.9932556449869, 
    "name": "TasteBuds Kitchen", 
    "phone": "(212) 242-2248", 
    "postal_code": "10001", 
    "region": "NY", 
    "street_address": "109 West 27th St.", 
    "website": ""
  }, 
  {
    "country": "United States", 
    "id": "4a4e8b79f964a520a7ae1fe3", 
    "latitude": 40.7487085818727, 
    "locality": "New York", 
    "longitude": -73.975774344243, 
    "name": "Margarita Murphy's", 
    "phone": "(212) 684-4421", 
    "postal_code": "10016", 
    "region": "NY", 
    "street_address": "591 3rd Ave.", 
    "website": ""
  }, 
  {
    "country": "United States", 
    "id": "4da8daa5a86e771ea6fdad17", 
    "latitude": 40.7720119741442, 
    "locality": "New York", 
    "longitude": -73.981576751425, 
    "name": "Boulud Sud", 
    "phone": "(212) 595-1313", 
    "postal_code": "10023", 
    "region": "NY", 
    "street_address": "20 W. 64th St.", 
    "website": ""
  }, 
  {
    "country": "United States", 
    "id": "4af8a9eaf964a5200a0f22e3", 
    "latitude": 40.727035, 
    "locality": "New York", 
    "longitude": -74.000009, 
    "name": "Bar Henry", 
    "phone": "(646) 448-4559", 
    "postal_code": "10012", 
    "region": "NY", 
    "street_address": "90 W. Houston St.", 
    "website": "http://www.barhenry.com"
  }, 
  {
    "country": "United States", 
    "id": "4c35218a452620a1c55b260f", 
    "latitude": 40.7534604654468, 
    "locality": "New York", 
    "longitude": -73.9733344316483, 
    "name": "The Roof At Aretsky's Patroon", 
    "phone": "(212) 883-7373", 
    "postal_code": "10017", 
    "region": "NY", 
    "street_address": "160 E. 46th St.", 
    "website": "http://www.patroonrestaurant.com"
  }, 
  {
    "country": "United States", 
    "id": "4f32864019836c91c7e03c40", 
    "latitude": 40.750867, 
    "locality": "New York", 
    "longitude": -74.005807, 
    "name": "Onnuly", 
    "phone": "(212) 352-8548", 
    "postal_code": "", 
    "region": "NY", 
    "street_address": "601 W. 26th St.", 
    "website": ""
  }, 
  {
    "country": "United States", 
    "id": "4ae5e447f964a520eca221e3", 
    "latitude": 40.7627513523257, 
    "locality": "New York", 
    "longitude": -73.9676587156666, 
    "name": "Green Cafe", 
    "phone": "(212) 754-2525", 
    "postal_code": "10022", 
    "region": "NY", 
    "street_address": "145 E. 60th St.", 
    "website": ""
  }, 
  {
    "country": "United States", 
    "id": "4e38a2cfbd415d9f63d711a3", 
    "latitude": 40.747857019042, 
    "locality": "New York", 
    "longitude": -73.9766237679045, 
    "name": "Dunkin Donuts", 
    "phone": "", 
    "postal_code": "10016", 
    "region": "NY", 
    "street_address": "567 3rd Ave.", 
    "website": "http://www.dunkindonuts.com"
  }, 
  {
    "country": "United States", 
    "id": "4e37a53d1838d056d2745dd3", 
    "latitude": 38.788716, 
    "locality": "New York", 
    "longitude": -90.519004, 
    "name": "Travertine Restaurant", 
    "phone": null, 
    "postal_code": "", 
    "region": "NY", 
    "street_address": "Judy Dr.", 
    "website": ""
  }, 
  {
    "country": "United States", 
    "id": "4dd157ca183899ddfb19fae6", 
    "latitude": 40.7591157391054, 
    "locality": "New York", 
    "longitude": -73.984819365592, 
    "name": "Tad's Steakhouse", 
    "phone": "(212) 768-0946", 
    "postal_code": "10036", 
    "region": "NY", 
    "street_address": "701 7th Ave.", 
    "website": "http://www.tads.com"
  }, 
  {
    "country": "United States", 
    "id": "4b04428af964a520a55222e3", 
    "latitude": 40.7608157907564, 
    "locality": "New York", 
    "longitude": -73.9909084453074, 
    "name": "Cara Mia", 
    "phone": "(212) 262-6767", 
    "postal_code": "10036", 
    "region": "NY", 
    "street_address": "654 9th Ave.", 
    "website": "http://www.caramiany.com"
  }, 
  {
    "country": "United States", 
    "id": "4e4c7895bd413c4cc669a24f", 
    "latitude": 40.781297, 
    "locality": "New York", 
    "longitude": -73.949247, 
    "name": "Red Rock Roadhouse Bar & Grill", 
    "phone": "(212) 360-6827", 
    "postal_code": "10128", 
    "region": "NY", 
    "street_address": "1754 2nd Ave.", 
    "website": ""
  }, 
  {
    "country": "United States", 
    "id": "4da39a219935a0933d0bcd6f", 
    "latitude": 40.7794283017808, 
    "locality": "New York", 
    "longitude": -73.9504391360872, 
    "name": "The Brown Cup", 
    "phone": "(212) 369-3949", 
    "postal_code": "10128", 
    "region": "NY", 
    "street_address": "1707 2nd Ave.", 
    "website": ""
  }, 
  {
    "country": "United States", 
    "id": "4a9ea9b8f964a520d63a20e3", 
    "latitude": 40.7528114573744, 
    "locality": "New York", 
    "longitude": -73.988687474425, 
    "name": "Zaro's Bakery", 
    "phone": "(212) 575-7031", 
    "postal_code": "10018", 
    "region": "NY", 
    "street_address": "501 7th Ave.", 
    "website": ""
  }, 
  {
    "country": "United States", 
    "id": "4ae76533f964a520eeaa21e3", 
    "latitude": 40.7800483109791, 
    "locality": "New York", 
    "longitude": -73.9530795713175, 
    "name": "B&B Marketplace", 
    "phone": null, 
    "postal_code": "10128", 
    "region": "NY", 
    "street_address": "1566 3rd Ave.", 
    "website": ""
  }, 
  {
    "country": "United States", 
    "id": "4eb4eb6f93ad23656ff0cf1d", 
    "latitude": 40.7198295593262, 
    "locality": "New York", 
    "longitude": -73.9864807128906, 
    "name": "Kelle's Blue Van", 
    "phone": null, 
    "postal_code": "10002", 
    "region": "NY", 
    "street_address": "", 
    "website": ""
  }, 
  {
    "country": "United States", 
    "id": "4de433fcd164df8575257503", 
    "latitude": 40.8062017141456, 
    "locality": "New York", 
    "longitude": -73.941490088528, 
    "name": "Uptown Vegetarian Food & Juice Bar", 
    "phone": "(212) 987-2660", 
    "postal_code": "10035", 
    "region": "NY", 
    "street_address": "14 E. 125th St.", 
    "website": ""
  }, 
  {
    "country": "United States", 
    "id": "4f32560819836c91c7cdb2f3", 
    "latitude": 40.866181, 
    "locality": "New York", 
    "longitude": -73.920378, 
    "name": "Empire Chinese Restaurant", 
    "phone": "(212) 569-1212", 
    "postal_code": "", 
    "region": "NY", 
    "street_address": "563 W. 207th St.", 
    "website": "http://www.newyorkchinese.netfirms.com"
  }, 
  {
    "country": "United States", 
    "id": "4ecfee738231b9ef87fdebac", 
    "latitude": 40.7617020606995, 
    "locality": "New York", 
    "longitude": -73.9748471975327, 
    "name": "Caught In A Began Cab", 
    "phone": null, 
    "postal_code": "10022", 
    "region": "NY", 
    "street_address": "", 
    "website": ""
  }, 
  {
    "country": "United States", 
    "id": "4b58ab7cf964a520cf6428e3", 
    "latitude": 40.71658, 
    "locality": "New York", 
    "longitude": -73.988749, 
    "name": "Shalom Chai Pizza", 
    "phone": "(212) 598-4178", 
    "postal_code": "10002", 
    "region": "NY", 
    "street_address": "359 Grand St.", 
    "website": ""
  }, 
  {
    "country": "United States", 
    "id": "4f32b79a19836c91c7f2c621", 
    "latitude": 40.749003, 
    "locality": "New York", 
    "longitude": -73.972418, 
    "name": "Manymenuscom", 
    "phone": "(212) 352-7218", 
    "postal_code": "", 
    "region": "NY", 
    "street_address": "314 E. 41st St.", 
    "website": ""
  }, 
  {
    "country": "United States", 
    "id": "4bf95b80508c0f4766473f31", 
    "latitude": 40.725855, 
    "locality": "New York", 
    "longitude": -73.996523, 
    "name": "Little Cupcake Lover Cart", 
    "phone": "", 
    "postal_code": "10012", 
    "region": "NY", 
    "street_address": "620 Broadway", 
    "website": ""
  }, 
  {
    "country": "United States", 
    "id": "4f43413519834bc91f558fda", 
    "latitude": 40.762931, 
    "locality": "New York", 
    "longitude": -73.969957, 
    "name": "Caviartera New York", 
    "phone": "(212) 759-7410", 
    "postal_code": "", 
    "region": "NY", 
    "street_address": "502 Park Ave.", 
    "website": ""
  }, 
  {
    "country": "United States", 
    "id": "4a51088cf964a52079b01fe3", 
    "latitude": 40.7640074067716, 
    "locality": "New York", 
    "longitude": -73.98678786395, 
    "name": "Bamboo 52", 
    "phone": "(212) 315-2777", 
    "postal_code": "10019", 
    "region": "NY", 
    "street_address": "344 W. 52nd St.", 
    "website": ""
  }, 
  {
    "country": "United States", 
    "id": "4d3f737daae1b1f7dcd97df5", 
    "latitude": 40.7312873427197, 
    "locality": "New York", 
    "longitude": -73.9888536930084, 
    "name": "SU basketball with Big Apple Orange!", 
    "phone": null, 
    "postal_code": "10003", 
    "region": "NY", 
    "street_address": "Village Pourhouse, 64 Third Ave.", 
    "website": ""
  }, 
  {
    "country": "United States", 
    "id": "4ec2fa2f0aaf300b7fb29e5a", 
    "latitude": 40.8809855653565, 
    "locality": "New York", 
    "longitude": -73.90857769115, 
    "name": "Golden Gate Express", 
    "phone": null, 
    "postal_code": "10463", 
    "region": "NY", 
    "street_address": "300 W. 231st St.", 
    "website": ""
  }, 
  {
    "country": "United States", 
    "id": "4a7b1d64f964a52011ea1fe3", 
    "latitude": 40.742997688497, 
    "locality": "New York", 
    "longitude": -73.983907699585, 
    "name": "McDonald's", 
    "phone": "(212) 683-4919", 
    "postal_code": "10016", 
    "region": "NY", 
    "street_address": "401 Park Ave. S.", 
    "website": "http://www.mcdonaldsnytristate.com"
  }, 
  {
    "country": "United States", 
    "id": "4d8d21521716a143825711f7", 
    "latitude": 40.7472600712908, 
    "locality": "New York", 
    "longitude": -73.9851407544573, 
    "name": "Pan", 
    "phone": "(212) 679-0770", 
    "postal_code": "10016", 
    "region": "NY", 
    "street_address": "319 5th Ave.", 
    "website": ""
  }, 
  {
    "country": "United States", 
    "id": "4e4e4ad6bd4101d0d7a70038", 
    "latitude": 40.7471228422405, 
    "locality": "New York", 
    "longitude": -73.9895942305002, 
    "name": "Famous Curry & Kabob", 
    "phone": "(212) 685-7930", 
    "postal_code": "10016", 
    "region": "NY", 
    "street_address": "15 E. 31st St.", 
    "website": ""
  }, 
  {
    "country": "United States", 
    "id": "4e16324e52b1091958e3d474", 
    "latitude": 40.750314, 
    "locality": "New York", 
    "longitude": -73.97745515, 
    "name": "Likeable Book Meetup!", 
    "phone": null, 
    "postal_code": "", 
    "region": "NY", 
    "street_address": "", 
    "website": ""
  }, 
  {
    "country": "United States", 
    "id": "4aef34e8f964a52090d621e3", 
    "latitude": 40.715549, 
    "locality": "New York", 
    "longitude": -74.004888, 
    "name": "Atomic Wings", 
    "phone": "(212) 571-7667", 
    "postal_code": "10007", 
    "region": "NY", 
    "street_address": "311 Broadway", 
    "website": "http://www.atomicwings.com"
  }, 
  {
    "country": "United States", 
    "id": "4d8cee4cd4ec8cfa74b74c89", 
    "latitude": 40.777869, 
    "locality": "New York", 
    "longitude": -73.945787, 
    "name": "Conti's Meat Market Deli", 
    "phone": "(212) 737-1064", 
    "postal_code": "10128", 
    "region": "NY", 
    "street_address": "1692 York Ave.", 
    "website": ""
  }, 
  {
    "country": "United States", 
    "id": "4cba3700035d236ab10ed94e", 
    "latitude": 40.8064788579941, 
    "locality": "New York", 
    "longitude": -73.9424031972885, 
    "name": "Fishers Of Men", 
    "phone": null, 
    "postal_code": "10027", 
    "region": "NY", 
    "street_address": "", 
    "website": ""
  }, 
  {
    "country": "United States", 
    "id": "4a8ca410f964a520c50e20e3", 
    "latitude": 40.7077493800191, 
    "locality": "New York", 
    "longitude": -74.0038205571065, 
    "name": "Wendy's", 
    "phone": "(212) 233-0873", 
    "postal_code": "10038", 
    "region": "NY", 
    "street_address": "117 Beekman St.", 
    "website": "http://www.wendys.com"
  }, 
  {
    "country": "United States", 
    "id": "4ae5e52bf964a520f2a221e3", 
    "latitude": 40.727946, 
    "locality": "New York", 
    "longitude": -74.001917, 
    "name": "Koo Japanese Fusion", 
    "phone": "(212) 228-9028", 
    "postal_code": "10012", 
    "region": "NY", 
    "street_address": "142 W. Houston St.", 
    "website": "http://koosushinyc.com"
  }, 
  {
    "country": "United States", 
    "id": "4c439c54f97fbe9a301dba30", 
    "latitude": 40.8002519835828, 
    "locality": "New York", 
    "longitude": -73.9682154564175, 
    "name": "Calcutta Cafe", 
    "phone": "(212) 316-9195", 
    "postal_code": "10025", 
    "region": "NY", 
    "street_address": "2535 Broadway", 
    "website": ""
  }, 
  {
    "country": "United States", 
    "id": "4a78633ff964a52086e51fe3", 
    "latitude": 40.7575975799171, 
    "locality": "New York", 
    "longitude": -73.9665567086124, 
    "name": "Taksim Restaurant", 
    "phone": "(212) 421-3004", 
    "postal_code": "10022", 
    "region": "NY", 
    "street_address": "1030 2nd Ave.", 
    "website": "http://taksim.us"
  }, 
  {
    "country": "United States", 
    "id": "4c0a617e3c70b713c3fa275b", 
    "latitude": 40.7356911745627, 
    "locality": "New York", 
    "longitude": -73.9740066127084, 
    "name": "New York Health & Racquet Club Yacht", 
    "phone": "(212) 220-0646", 
    "postal_code": "10010", 
    "region": "NY", 
    "street_address": "East 23rd St.", 
    "website": ""
  }, 
  {
    "country": "United States", 
    "id": "4f32608119836c91c7d1c9c8", 
    "latitude": 40.728398, 
    "locality": "New York", 
    "longitude": -74.005346, 
    "name": "Off Track Betting", 
    "phone": "(212) 221-5200", 
    "postal_code": "", 
    "region": "NY", 
    "street_address": "200 Varick St.", 
    "website": ""
  }, 
  {
    "country": "United States", 
    "id": "4fd106d6e4b064b8c3683c1b", 
    "latitude": 40.7291879636598, 
    "locality": "New York", 
    "longitude": -74.0012611587691, 
    "name": "The Coffee Bean & Tea Leaf", 
    "phone": "(212) 673-0050", 
    "postal_code": "10012", 
    "region": "NY", 
    "street_address": "189 Bleecker St.", 
    "website": "http://www.facebook.com/coffeebeanny"
  }, 
  {
    "country": "United States", 
    "id": "4ea95fa2b8f7d2a521d83e61", 
    "latitude": 40.7594114639673, 
    "locality": "New York", 
    "longitude": -73.985002040863, 
    "name": "Snack Box", 
    "phone": "", 
    "postal_code": "10036", 
    "region": "NY", 
    "street_address": "47th And Broadway", 
    "website": "http://www.cititour.com/NYC_Restaurants/Snack-Box/5266"
  }, 
  {
    "country": "United States", 
    "id": "3fd66200f964a52029e91ee3", 
    "latitude": 40.7234980058666, 
    "locality": "New York", 
    "longitude": -74.0033442591106, 
    "name": "Ruben's Empanadas", 
    "phone": "(212) 334-3351", 
    "postal_code": "10012", 
    "region": "NY", 
    "street_address": "505 Broome St.", 
    "website": ""
  }, 
  {
    "country": "United States", 
    "id": "49de31ccf964a52030601fe3", 
    "latitude": 40.754773499595, 
    "locality": "New York", 
    "longitude": -73.974276364999, 
    "name": "Yushi Asian Kitchen", 
    "phone": "(212) 687-1900", 
    "postal_code": "10167", 
    "region": "NY", 
    "street_address": "245 Park Ave.", 
    "website": "http://www.yushi.com"
  }, 
  {
    "country": "United States", 
    "id": "4b4907c8f964a520ce6226e3", 
    "latitude": 40.82032081472, 
    "locality": "New York", 
    "longitude": -73.955157453671, 
    "name": "Wally's Deli", 
    "phone": "(212) 234-7557", 
    "postal_code": "10031", 
    "region": "NY", 
    "street_address": "3345 Broadway", 
    "website": "http://www.wallys-deli.com"
  }, 
  {
    "country": "United States", 
    "id": "4e055891fa767637fd1db8e7", 
    "latitude": 40.7288993306847, 
    "locality": "New York", 
    "longitude": -74.0050945049567, 
    "name": "La Camelia", 
    "phone": "(212) 675-7060", 
    "postal_code": "10014", 
    "region": "NY", 
    "street_address": "64 Downing St.", 
    "website": "http://www.lacamelianyc.com"
  }, 
  {
    "country": "United States", 
    "id": "4a738d55f964a520c7dc1fe3", 
    "latitude": 40.6775296685614, 
    "locality": "Brooklyn", 
    "longitude": -73.9690247364956, 
    "name": "Plan B", 
    "phone": "(347) 240-2171", 
    "postal_code": "11238", 
    "region": "NY", 
    "street_address": "626 Vanderbilt Ave.", 
    "website": "http://www.planb626.com"
  }, 
  {
    "country": "United States", 
    "id": "4fad4b7ae4b0bd83330c617f", 
    "latitude": 40.756218, 
    "locality": "New York", 
    "longitude": -73.991033, 
    "name": "Hot Dog Cart Eighth Ave @39th St.", 
    "phone": null, 
    "postal_code": "10018", 
    "region": "NY", 
    "street_address": "", 
    "website": ""
  }, 
  {
    "country": "United States", 
    "id": "3fd66200f964a52097e41ee3", 
    "latitude": 40.729067, 
    "locality": "New York", 
    "longitude": -73.985178, 
    "name": "Uncle Louie G's", 
    "phone": "(718) 375-9725", 
    "postal_code": "10003", 
    "region": "NY", 
    "street_address": "49 1st Ave.", 
    "website": ""
  }, 
  {
    "country": "United States", 
    "id": "4f322e6a19836c91c7be2343", 
    "latitude": 40.756406, 
    "locality": "New York", 
    "longitude": -73.97772, 
    "name": "C'Est Bon Cafe", 
    "phone": "(212) 319-6680", 
    "postal_code": "", 
    "region": "NY", 
    "street_address": "5 E. 47th St.", 
    "website": ""
  }, 
  {
    "country": "United States", 
    "id": "4f44cf7b19836ed00196ab36", 
    "latitude": 40.761239, 
    "locality": "New York", 
    "longitude": -73.97312, 
    "name": "Shallots New York", 
    "phone": "(212) 833-7800", 
    "postal_code": "", 
    "region": "NY", 
    "street_address": "550 Madison Ave.", 
    "website": "http://www.shallotsny.com"
  }, 
  {
    "country": "United States", 
    "id": "4ad39a8df964a52022e520e3", 
    "latitude": 40.7395039222707, 
    "locality": "New York", 
    "longitude": -73.9952355343595, 
    "name": "2 Bros. Pizza", 
    "phone": "(212) 206-8656", 
    "postal_code": "10011", 
    "region": "NY", 
    "street_address": "601 Ave. Of The Americas", 
    "website": ""
  }, 
  {
    "country": "United States", 
    "id": "4dee1540fa76b21ed991ff2c", 
    "latitude": 40.7133170715461, 
    "locality": "New York", 
    "longitude": -74.0123535503784, 
    "name": "Fresh Juice", 
    "phone": null, 
    "postal_code": "", 
    "region": "NY", 
    "street_address": "West Broadway", 
    "website": ""
  }, 
  {
    "country": "United States", 
    "id": "4f32484619836c91c7c85426", 
    "latitude": 40.722766, 
    "locality": "New York", 
    "longitude": -73.988844, 
    "name": "Robert Swingle Distinctive Catering", 
    "phone": "(914) 629-2939", 
    "postal_code": "", 
    "region": "NY", 
    "street_address": "205 Allen St.", 
    "website": ""
  }, 
  {
    "country": "United States", 
    "id": "420fea00f964a520861f1fe3", 
    "latitude": 40.7646187517819, 
    "locality": "New York", 
    "longitude": -73.9807101320006, 
    "name": "Molyvos", 
    "phone": "(212) 582-7500", 
    "postal_code": "10019", 
    "region": "NY", 
    "street_address": "871 7th Ave.", 
    "website": "http://www.molyvos.com"
  }, 
  {
    "country": "United States", 
    "id": "50e98e4be4b0a6e2890fc928", 
    "latitude": 40.7919410835552, 
    "locality": "New York", 
    "longitude": -73.938258226878, 
    "name": "The Real Clubhouse - Harlem", 
    "phone": null, 
    "postal_code": "10029", 
    "region": "NY", 
    "street_address": "2133 First Ave.", 
    "website": ""
  }, 
  {
    "country": "United States", 
    "id": "4b631da0f964a5202e642ae3", 
    "latitude": 40.7496962878161, 
    "locality": "New York", 
    "longitude": -73.9772149186446, 
    "name": "Giuseppe's Pizza", 
    "phone": "(212) 683-4721", 
    "postal_code": "10016", 
    "region": "NY", 
    "street_address": "341 Lexington Ave.", 
    "website": ""
  }, 
  {
    "country": "United States", 
    "id": "4e4d037fbd413c4cc66dfd25", 
    "latitude": 40.864382, 
    "locality": "Bronx", 
    "longitude": -73.891722, 
    "name": "Hing Wang Chinese Restaurant", 
    "phone": "(718) 933-0504", 
    "postal_code": "10458", 
    "region": "NY", 
    "street_address": "316 E. 194th St.", 
    "website": ""
  }, 
  {
    "country": "United States", 
    "id": "4e4e2afdbd4101d0d7a3ca06", 
    "latitude": 40.846259, 
    "locality": "Bronx", 
    "longitude": -73.78612, 
    "name": "The Tree House Restaurant", 
    "phone": "(718) 885-0806", 
    "postal_code": "10464", 
    "region": "NY", 
    "street_address": "273 City Island Ave.", 
    "website": ""
  }, 
  {
    "country": "United States", 
    "id": "4bad0a2df964a5205e273be3", 
    "latitude": 40.7256056124128, 
    "locality": "New York", 
    "longitude": -74.0074931765357, 
    "name": "Ellen's Deli & Grocery", 
    "phone": "(212) 675-7792", 
    "postal_code": "10013", 
    "region": "NY", 
    "street_address": "289 Hudson St.", 
    "website": ""
  }, 
  {
    "country": "United States", 
    "id": "4e4cd4f2bd413c4cc66c8490", 
    "latitude": 40.8155909133259, 
    "locality": "New York", 
    "longitude": -73.9571205153578, 
    "name": "Uni One Gourmet Deli", 
    "phone": "(212) 280-0215", 
    "postal_code": "10027", 
    "region": "NY", 
    "street_address": "3153 Broadway", 
    "website": ""
  }, 
  {
    "country": "United States", 
    "id": "4b874083f964a520a6b831e3", 
    "latitude": 40.7910806653692, 
    "locality": "New York", 
    "longitude": -73.972497140786, 
    "name": "Mana", 
    "phone": "(212) 787-1110", 
    "postal_code": "10025", 
    "region": "NY", 
    "street_address": "646 Amsterdam Ave.", 
    "website": ""
  }, 
  {
    "country": "United States", 
    "id": "4b45241af964a520130626e3", 
    "latitude": 40.693671043808, 
    "locality": "Brooklyn", 
    "longitude": -73.9884942770004, 
    "name": "The Archives Restaurant & Bar", 
    "phone": "(718) 222-6543", 
    "postal_code": "11201", 
    "region": "NY", 
    "street_address": "333 Adams St.", 
    "website": "http://www.brooklynmarriott.com"
  }, 
  {
    "country": "United States", 
    "id": "49cfcf1cf964a520c95a1fe3", 
    "latitude": 40.735172, 
    "locality": "New York", 
    "longitude": -73.985776, 
    "name": "Mumbles", 
    "phone": "(212) 477-6066", 
    "postal_code": "10003", 
    "region": "NY", 
    "street_address": "179 3rd Ave.", 
    "website": "http://mumblesnyc.com"
  }, 
  {
    "country": "United States", 
    "id": "49f52666f964a5209d6b1fe3", 
    "latitude": 40.764259, 
    "locality": "New York", 
    "longitude": -73.9672, 
    "name": "Fishtail by David Burke", 
    "phone": "(212) 754-1300", 
    "postal_code": "10065", 
    "region": "NY", 
    "street_address": "135 E. 62nd St.", 
    "website": "http://www.fishtaildb.com"
  }, 
  {
    "country": "United States", 
    "id": "4b2a40e8f964a5208ea624e3", 
    "latitude": 40.7615609255028, 
    "locality": "New York", 
    "longitude": -73.9838647842407, 
    "name": "Applebee's Neighborhood Grill & Bar", 
    "phone": "(212) 262-2400", 
    "postal_code": "10019", 
    "region": "NY", 
    "street_address": "205 W. 50th St.", 
    "website": "http://www.facebook.com/applebees50thbroadway?ref=hl"
  }, 
  {
    "country": "United States", 
    "id": "4ab521e5f964a520ae7220e3", 
    "latitude": 40.76556, 
    "locality": "New York", 
    "longitude": -73.983434, 
    "name": "Meze Grill", 
    "phone": "(212) 969-9782", 
    "postal_code": "10019", 
    "region": "NY", 
    "street_address": "934 8th Ave.", 
    "website": "http://www.mezegrill.com"
  }, 
  {
    "country": "United States", 
    "id": "4dc58c2a45dd264552739738", 
    "latitude": 40.8143594841291, 
    "locality": "New York", 
    "longitude": -73.94070365469, 
    "name": "Palomino Truck", 
    "phone": null, 
    "postal_code": "10030", 
    "region": "NY", 
    "street_address": "510 Malcolm X Blvd.", 
    "website": ""
  }, 
  {
    "country": "United States", 
    "id": "4fa1dbd4e4b0857bbd0d65a5", 
    "latitude": 40.7616741319278, 
    "locality": "New York", 
    "longitude": -73.9857835305744, 
    "name": "Luckyrice Sunset Luau", 
    "phone": null, 
    "postal_code": "10014", 
    "region": "NY", 
    "street_address": "", 
    "website": ""
  }, 
  {
    "country": "United States", 
    "id": "3fd66200f964a520fce91ee3", 
    "latitude": 40.7435278805206, 
    "locality": "New York", 
    "longitude": -73.9996199122351, 
    "name": "Spice", 
    "phone": "(212) 620-4585", 
    "postal_code": "10011", 
    "region": "NY", 
    "street_address": "199 8th Ave.", 
    "website": "http://www.spicethainyc.com/spice/"
  }, 
  {
    "country": "United States", 
    "id": "4b7736b9f964a5206b882ee3", 
    "latitude": 40.717677, 
    "locality": "New York", 
    "longitude": -73.995321, 
    "name": "Emperor Japanese Tapas Shabu", 
    "phone": "(212) 219-1993", 
    "postal_code": "10013", 
    "region": "NY", 
    "street_address": "96 Bowery", 
    "website": ""
  }, 
  {
    "country": "United States", 
    "id": "51af7816498ea2a442cccdec", 
    "latitude": 40.7625770568848, 
    "locality": "New York", 
    "longitude": -73.9867782592773, 
    "name": "Hot Dog Stand", 
    "phone": null, 
    "postal_code": "", 
    "region": "NY", 
    "street_address": "50th St.", 
    "website": ""
  }, 
  {
    "country": "United States", 
    "id": "4a839a13f964a52088fb1fe3", 
    "latitude": 40.75587, 
    "locality": "New York", 
    "longitude": -73.991579, 
    "name": "Rinconcito Mexicano", 
    "phone": "(212) 268-1704", 
    "postal_code": "10018", 
    "region": "NY", 
    "street_address": "307 W. 39th St.", 
    "website": ""
  }, 
  {
    "country": "United States", 
    "id": "4f6ffe92e4b056aa94fb9a23", 
    "latitude": 40.8137603944118, 
    "locality": "New York", 
    "longitude": -73.9380573100751, 
    "name": "Sharkey's Place", 
    "phone": null, 
    "postal_code": "10037", 
    "region": "NY", 
    "street_address": "", 
    "website": ""
  }, 
  {
    "country": "United States", 
    "id": "4c0c2d70a1b32d7f19329cf0", 
    "latitude": 40.7310442393578, 
    "locality": "New York", 
    "longitude": -73.9935368479115, 
    "name": "H\u00e4agen-Dazs", 
    "phone": "(212) 777-2477", 
    "postal_code": "10003", 
    "region": "NY", 
    "street_address": "55 E. 8th St.", 
    "website": ""
  }, 
  {
    "country": "United States", 
    "id": "4afb35aff964a5201a1c22e3", 
    "latitude": 40.7168356323449, 
    "locality": "New York", 
    "longitude": -74.007447269228, 
    "name": "MEGU New York", 
    "phone": "(212) 964-7777", 
    "postal_code": "10013", 
    "region": "NY", 
    "street_address": "62 Thomas St.", 
    "website": "http://www.megurestaurants.com"
  }, 
  {
    "country": "United States", 
    "id": "49d77c3af964a520285d1fe3", 
    "latitude": 40.677119, 
    "locality": "Brooklyn", 
    "longitude": -73.9800667762756, 
    "name": "Lobo Park Slope", 
    "phone": "(718) 636-8886", 
    "postal_code": "11217", 
    "region": "NY", 
    "street_address": "188 5th Ave., #a", 
    "website": "http://www.lobonyc.com"
  }, 
  {
    "country": "United States", 
    "id": "4bbba1f251b89c74da77862a", 
    "latitude": 40.7085406780243, 
    "locality": "New York", 
    "longitude": -74.0113735198975, 
    "name": "Smoothie and Bubble Tea Cart", 
    "phone": null, 
    "postal_code": "10006", 
    "region": "NY", 
    "street_address": "Broadway", 
    "website": ""
  }, 
  {
    "country": "United States", 
    "id": "4f3253d919836c91c7ccdabb", 
    "latitude": 40.748217, 
    "locality": "New York", 
    "longitude": -73.984801, 
    "name": "China US", 
    "phone": "(212) 532-0328", 
    "postal_code": "", 
    "region": "NY", 
    "street_address": "347 5th Ave.", 
    "website": ""
  }, 
  {
    "country": "United States", 
    "id": "4a945410f964a5203f2120e3", 
    "latitude": 40.76404824, 
    "locality": "New York", 
    "longitude": -73.9884, 
    "name": "Go Sushi", 
    "phone": "(212) 459-2288", 
    "postal_code": "10019", 
    "region": "NY", 
    "street_address": "756 9th Ave.", 
    "website": "http://www.gosushi.net"
  }, 
  {
    "country": "United States", 
    "id": "4b5a6114f964a52043c128e3", 
    "latitude": 40.616019, 
    "locality": "Brooklyn", 
    "longitude": -73.929812, 
    "name": "China New Star", 
    "phone": "(718) 253-6078", 
    "postal_code": "11234", 
    "region": "NY", 
    "street_address": "2212 Flatbush Ave.", 
    "website": ""
  }, 
  {
    "country": "United States", 
    "id": "4ad79820f964a5208a0c21e3", 
    "latitude": 40.7553845918664, 
    "locality": "New York", 
    "longitude": -73.9721488952637, 
    "name": "Manhattan Espresso Cafe", 
    "phone": "(212) 832-3010", 
    "postal_code": "", 
    "region": "NY", 
    "street_address": "146 E. 49th St.", 
    "website": "http://www.manhattanespressocafe.com"
  }, 
  {
    "country": "United States", 
    "id": "50f23db7e4b0476f9a340695", 
    "latitude": 40.7451800404193, 
    "locality": "New York", 
    "longitude": -73.9999699694941, 
    "name": "Chez Ehrenberg", 
    "phone": null, 
    "postal_code": "10011", 
    "region": "NY", 
    "street_address": "", 
    "website": ""
  }, 
  {
    "country": "United States", 
    "id": "4c3cffbcb36ac92885e90486", 
    "latitude": 40.846447, 
    "locality": "New York", 
    "longitude": -73.935997, 
    "name": "Little Caesars", 
    "phone": "(212) 543-2127", 
    "postal_code": "", 
    "region": "NY", 
    "street_address": "1332 St. Nicholas Ave.", 
    "website": "http://www.littlecaesars.com"
  }, 
  {
    "country": "United States", 
    "id": "512f956fe4b05cdd1a6bd03d", 
    "latitude": 40.7374374619933, 
    "locality": "New York", 
    "longitude": -73.9986276626587, 
    "name": "Grape And Vine", 
    "phone": null, 
    "postal_code": "10011", 
    "region": "NY", 
    "street_address": "52 W. 13th St.", 
    "website": "http://grapeandvinenyc.com"
  }, 
  {
    "country": "United States", 
    "id": "4f3225db19836c91c7badc00", 
    "latitude": 40.728781, 
    "locality": "New York", 
    "longitude": -73.984448, 
    "name": "Zarzara", 
    "phone": "(212) 477-1111", 
    "postal_code": "", 
    "region": "NY", 
    "street_address": "166 1st Ave.", 
    "website": ""
  }, 
  {
    "country": "United States", 
    "id": "4dc34fc7ae608779d1064ae9", 
    "latitude": 40.7435910599425, 
    "locality": "New York", 
    "longitude": -74.0033499976477, 
    "name": "Bathtub Gin", 
    "phone": "(646) 559-1671", 
    "postal_code": "10011", 
    "region": "NY", 
    "street_address": "132 9th Ave.", 
    "website": "http://www.bathtubginnyc.com"
  }, 
  {
    "country": "United States", 
    "id": "4b87ed02f964a52048d331e3", 
    "latitude": 40.7774825023793, 
    "locality": "New York", 
    "longitude": -73.9505424581439, 
    "name": "Tal Bagels", 
    "phone": "(212) 427-6811", 
    "postal_code": "10028", 
    "region": "NY", 
    "street_address": "333 E. 86th St.", 
    "website": ""
  }, 
  {
    "country": "United States", 
    "id": "4b918348f964a5200fc233e3", 
    "latitude": 40.7480054143058, 
    "locality": "New York", 
    "longitude": -74.0040386208536, 
    "name": "The Drunken Horse", 
    "phone": "(212) 604-0505", 
    "postal_code": "10011", 
    "region": "NY", 
    "street_address": "225 10th Ave.", 
    "website": ""
  }, 
  {
    "country": "United States", 
    "id": "4cdb235899026dcb24cf0a81", 
    "latitude": 40.84057, 
    "locality": "New York", 
    "longitude": -73.93667, 
    "name": "Fresh Fruit Smoothie Cart", 
    "phone": null, 
    "postal_code": "", 
    "region": "NY", 
    "street_address": "168th St.", 
    "website": ""
  }, 
  {
    "country": "United States", 
    "id": "4b1bfe3bf964a520510024e3", 
    "latitude": 40.8258643986826, 
    "locality": "New York", 
    "longitude": -73.9469605946222, 
    "name": "Village Fried Chicken", 
    "phone": "(212) 281-1060", 
    "postal_code": "", 
    "region": "NY", 
    "street_address": "1737 Amsterdam Ave.", 
    "website": ""
  }, 
  {
    "country": "United States", 
    "id": "5101cb6ae4b0540098baf91a", 
    "latitude": 40.7442470977445, 
    "locality": "New York", 
    "longitude": -73.976262189372, 
    "name": "Orange Leaf Frozen Yogurt", 
    "phone": "(646) 461-2122", 
    "postal_code": "10016", 
    "region": "NY", 
    "street_address": "608 2nd Ave.", 
    "website": ""
  }, 
  {
    "country": "United States", 
    "id": "4a70a333f964a52006d81fe3", 
    "latitude": 40.7250358111094, 
    "locality": "New York", 
    "longitude": -73.9964177194233, 
    "name": "Intelligentsia Training Lab", 
    "phone": "(212) 203-4268", 
    "postal_code": "10012", 
    "region": "NY", 
    "street_address": "594 Broadway, Rm 909a", 
    "website": "http://www.intelligentsiacoffee.com/location/new-york-training-lab"
  }, 
  {
    "country": "United States", 
    "id": "4af2269ff964a52032e621e3", 
    "latitude": 40.762397199949, 
    "locality": "New York", 
    "longitude": -73.9863689140948, 
    "name": "Ichi Masa", 
    "phone": "(212) 315-4800", 
    "postal_code": "10019", 
    "region": "NY", 
    "street_address": "302 W. 50th St.", 
    "website": ""
  }, 
  {
    "country": "United States", 
    "id": "45fe3c08f964a52083441fe3", 
    "latitude": 40.7771594935425, 
    "locality": "New York", 
    "longitude": -73.9523678053724, 
    "name": "Molly Pitcher's Ale House", 
    "phone": "(212) 249-3068", 
    "postal_code": "10028", 
    "region": "NY", 
    "street_address": "1641 2nd Ave.", 
    "website": "http://mollypitchersnyc.com"
  }, 
  {
    "country": "United States", 
    "id": "50f5fc0de4b0698e4aedc594", 
    "latitude": 40.763, 
    "locality": "New York", 
    "longitude": -73.986396, 
    "name": "Mira's Lair La La", 
    "phone": null, 
    "postal_code": "10019", 
    "region": "NY", 
    "street_address": "306 West 51 St.", 
    "website": ""
  }, 
  {
    "country": "United States", 
    "id": "51a89c80498e9e5be7c80d39", 
    "latitude": 40.7743691, 
    "locality": "New York", 
    "longitude": -73.9635199, 
    "name": "The Carlyle, A Rosewood Restaurant", 
    "phone": null, 
    "postal_code": "10021", 
    "region": "NY", 
    "street_address": "35 E. 76th St.", 
    "website": ""
  }, 
  {
    "country": "United States", 
    "id": "51b2a0ba498e238459fdcdcd", 
    "latitude": 40.7732319, 
    "locality": "New York", 
    "longitude": -73.9262374, 
    "name": "Freedom Cafe", 
    "phone": null, 
    "postal_code": "", 
    "region": "NY", 
    "street_address": "Road 26", 
    "website": ""
  }, 
  {
    "country": "United States", 
    "id": "4f32461419836c91c7c771b1", 
    "latitude": 40.710977, 
    "locality": "New York", 
    "longitude": -74.00696, 
    "name": "Famous Original Ray's Pizza", 
    "phone": "(212) 346-9400", 
    "postal_code": "", 
    "region": "NY", 
    "street_address": "123 Nassau St.", 
    "website": ""
  }, 
  {
    "country": "United States", 
    "id": "49f1c129f964a520b5691fe3", 
    "latitude": 40.734481, 
    "locality": "New York", 
    "longitude": -74.002934, 
    "name": "Fedora", 
    "phone": "(646) 449-9336", 
    "postal_code": "10014", 
    "region": "NY", 
    "street_address": "239 W. 4th St.", 
    "website": "http://fedoranyc.com"
  }, 
  {
    "country": "United States", 
    "id": "51893e9b498ea191c88f345a", 
    "latitude": 40.754623, 
    "locality": "New York", 
    "longitude": -73.991305, 
    "name": "New Li Yuan Restaurant", 
    "phone": null, 
    "postal_code": "", 
    "region": "NY", 
    "street_address": "", 
    "website": ""
  }, 
  {
    "country": "United States", 
    "id": "4a57b9e8f964a520acb61fe3", 
    "latitude": 40.7630628632604, 
    "locality": "New York", 
    "longitude": -73.9829885866209, 
    "name": "Crumbs Bake Shop", 
    "phone": "(212) 399-3100", 
    "postal_code": "10019", 
    "region": "NY", 
    "street_address": "1675 Broadway", 
    "website": "http://www.crumbs.com"
  }, 
  {
    "country": "United States", 
    "id": "4e585d8618382ada067b7441", 
    "latitude": 40.720214, 
    "locality": "New York", 
    "longitude": -73.997204, 
    "name": "The Manor", 
    "phone": null, 
    "postal_code": "10013", 
    "region": "NY", 
    "street_address": "175 Mulberry St., Apt 6", 
    "website": ""
  }, 
  {
    "country": "United States", 
    "id": "4e4e5799bd4101d0d7a81e89", 
    "latitude": 40.755525, 
    "locality": "New York", 
    "longitude": -73.9824376277786, 
    "name": "Fourty Four Restaurant", 
    "phone": "(212) 944-8844", 
    "postal_code": "10036", 
    "region": "NY", 
    "street_address": "44 W. 44th St.", 
    "website": ""
  }, 
  {
    "country": "United States", 
    "id": "4d70421f766da143df754bad", 
    "latitude": 40.707199, 
    "locality": "New York", 
    "longitude": -74.008434, 
    "name": "Pita Press", 
    "phone": "(212) 425-5123", 
    "postal_code": "10005", 
    "region": "NY", 
    "street_address": "25 Cedar St.", 
    "website": ""
  }, 
  {
    "country": "United States", 
    "id": "4ea39147490102dac31ab521", 
    "latitude": 40.719785, 
    "locality": "New York", 
    "longitude": -73.990073, 
    "name": "Sweet And Low Down", 
    "phone": "(212) 777-0408", 
    "postal_code": "", 
    "region": "NY", 
    "street_address": "123 Allen St.", 
    "website": "http://www.howsweetitispastry.com"
  }, 
  {
    "country": "United States", 
    "id": "4b0e8559f964a5203e5823e3", 
    "latitude": 40.7653952501074, 
    "locality": "New York", 
    "longitude": -73.9836485873208, 
    "name": "Hale & Hearty", 
    "phone": "(212) 247-8200", 
    "postal_code": "10019", 
    "region": "NY", 
    "street_address": "927 8th Ave.", 
    "website": ""
  }, 
  {
    "country": "United States", 
    "id": "4ac10f68f964a520a29520e3", 
    "latitude": 40.7522068752189, 
    "locality": "New York", 
    "longitude": -73.9797688985306, 
    "name": "Starbucks", 
    "phone": "(212) 922-9078", 
    "postal_code": "10017", 
    "region": "NY", 
    "street_address": "295 Madison Ave.", 
    "website": "http://www.starbucks.com"
  }, 
  {
    "country": "United States", 
    "id": "50aa744ee4b0d062c6dcf4de", 
    "latitude": 40.7564383838461, 
    "locality": "New York", 
    "longitude": -73.9767787299247, 
    "name": "NY SportsMed & Physical Therapy", 
    "phone": null, 
    "postal_code": "10017", 
    "region": "NY", 
    "street_address": "18 E. 48th St., Suite 802", 
    "website": "http://www.facebook.com/nysportsmed?ref=hl"
  }, 
  {
    "country": "United States", 
    "id": "4b8d756cf964a520effc32e3", 
    "latitude": 40.743072, 
    "locality": "New York", 
    "longitude": -73.993109, 
    "name": "Dunkin Donuts", 
    "phone": null, 
    "postal_code": "10011", 
    "region": "NY", 
    "street_address": "101 W. 23rd St.", 
    "website": "http://www.dunkindonuts.com"
  }, 
  {
    "country": "United States", 
    "id": "4a8dd484f964a520081120e3", 
    "latitude": 40.7832104805951, 
    "locality": "New York", 
    "longitude": -73.9803083865711, 
    "name": "La Caridad 78", 
    "phone": "(212) 874-2780", 
    "postal_code": "10024", 
    "region": "NY", 
    "street_address": "2199 Broadway", 
    "website": ""
  }, 
  {
    "country": "United States", 
    "id": "4dbc53c2a86e0e98a1e0c407", 
    "latitude": 40.7901921094855, 
    "locality": "New York", 
    "longitude": -73.9425802230835, 
    "name": "Milk Burger", 
    "phone": "(212) 360-1988", 
    "postal_code": "10029", 
    "region": "NY", 
    "street_address": "2051 2nd Ave.", 
    "website": "http://www.milkburger.com"
  }, 
  {
    "country": "United States", 
    "id": "4ed02f4877c8ea62fbd9b0f3", 
    "latitude": 40.750646, 
    "locality": "New York", 
    "longitude": -73.993982, 
    "name": "Big Kahuna Burger (That Hawaiian Joint)", 
    "phone": null, 
    "postal_code": "10119", 
    "region": "NY", 
    "street_address": "", 
    "website": ""
  }, 
  {
    "country": "United States", 
    "id": "4f32213419836c91c7b8fd03", 
    "latitude": 40.821728, 
    "locality": "New York", 
    "longitude": -73.953858, 
    "name": "Cafe Largo", 
    "phone": "(212) 234-1811", 
    "postal_code": "", 
    "region": "NY", 
    "street_address": "3387 Broadway", 
    "website": ""
  }, 
  {
    "country": "United States", 
    "id": "4bbf2f7898f49521ce32d263", 
    "latitude": 40.7138045943026, 
    "locality": "New York", 
    "longitude": -73.9805379554908, 
    "name": "Cozy Food Corp.", 
    "phone": null, 
    "postal_code": "", 
    "region": "NY", 
    "street_address": "565 Grand St.", 
    "website": ""
  }, 
  {
    "country": "United States", 
    "id": "3fd66200f964a520e3e91ee3", 
    "latitude": 40.736503, 
    "locality": "New York", 
    "longitude": -74.006442, 
    "name": "Paris Commune", 
    "phone": "(212) 929-0509", 
    "postal_code": "10014", 
    "region": "NY", 
    "street_address": "99 Bank St.", 
    "website": "http://pariscommune.net"
  }, 
  {
    "country": "United States", 
    "id": "4cdafe178ec69eb0860ca6e9", 
    "latitude": 40.753668932563, 
    "locality": "New York", 
    "longitude": -73.9824376277786, 
    "name": "Pretzelmaker", 
    "phone": "(212) 695-1186", 
    "postal_code": "10018", 
    "region": "NY", 
    "street_address": "625 8th Ave., S. Wing,2nd Floor", 
    "website": ""
  }, 
  {
    "country": "United States", 
    "id": "4e4e4d90bd4101d0d7a73d06", 
    "latitude": 40.724003, 
    "locality": "New York", 
    "longitude": -73.990174, 
    "name": "East Village Yacht Club", 
    "phone": "(212) 777-5617", 
    "postal_code": "10003", 
    "region": "NY", 
    "street_address": "42 E. 1st St.", 
    "website": "http://evyc.com"
  }, 
  {
    "country": "United States", 
    "id": "4c041c9d39d476b0dc0b31a7", 
    "latitude": 40.7722620383529, 
    "locality": "New York", 
    "longitude": -73.9830976303711, 
    "name": "L'Arte Del Gelato", 
    "phone": "", 
    "postal_code": "10023", 
    "region": "NY", 
    "street_address": "Lincoln Center Plaza", 
    "website": ""
  }, 
  {
    "country": "United States", 
    "id": "4e4c3d10bd413c4cc667e053", 
    "latitude": 40.732085, 
    "locality": "New York", 
    "longitude": -74.00145, 
    "name": "Mary's Dairy", 
    "phone": "(212) 242-6874", 
    "postal_code": "10014", 
    "region": "NY", 
    "street_address": "171 W. 4th St.", 
    "website": ""
  }, 
  {
    "country": "United States", 
    "id": "506e48ffe4b078ebe1c30a29", 
    "latitude": 40.7600390865449, 
    "locality": "New York", 
    "longitude": -73.991390513111, 
    "name": "Bocca Di Bacco", 
    "phone": "(212) 262-2525", 
    "postal_code": "10036", 
    "region": "NY", 
    "street_address": "635 9th Ave.", 
    "website": "http://nycrg.com/bocca-di-bacco/"
  }, 
  {
    "country": "United States", 
    "id": "4b49208ef964a520046726e3", 
    "latitude": 40.7311736446557, 
    "locality": "New York", 
    "longitude": -74.0028851755832, 
    "name": "Sushi Mambo", 
    "phone": "(212) 675-5885", 
    "postal_code": "10014", 
    "region": "NY", 
    "street_address": "255 Bleecker St.", 
    "website": "http://sushimambo.com\u200e"
  }, 
  {
    "country": "United States", 
    "id": "482c3fdbf964a520d04f1fe3", 
    "latitude": 40.731542, 
    "locality": "New York", 
    "longitude": -74.000581, 
    "name": "Vegetarian Paradise II", 
    "phone": "(212) 260-7130", 
    "postal_code": "10012", 
    "region": "NY", 
    "street_address": "144 W. 4th St.", 
    "website": "http://www.vegetariansparadise2.com"
  }, 
  {
    "country": "United States", 
    "id": "4b315e9bf964a520980525e3", 
    "latitude": 40.7627584719011, 
    "locality": "New York", 
    "longitude": -73.9773641408743, 
    "name": "Tang Pavilion", 
    "phone": "(212) 956-6888", 
    "postal_code": "10019", 
    "region": "NY", 
    "street_address": "65 W. 55th St.", 
    "website": ""
  }, 
  {
    "country": "United States", 
    "id": "4b216a22f964a520843b24e3", 
    "latitude": 40.7653004779299, 
    "locality": "New York", 
    "longitude": -73.9834821525755, 
    "name": "Vizio Grill", 
    "phone": "(212) 586-0756", 
    "postal_code": "10019", 
    "region": "NY", 
    "street_address": "255 W. 55th St.", 
    "website": "http://vizio.us"
  }, 
  {
    "country": "United States", 
    "id": "51da23e7498e33ff5c32f7d9", 
    "latitude": 40.772951, 
    "locality": "New York", 
    "longitude": -73.950018, 
    "name": "The Wine Depository", 
    "phone": null, 
    "postal_code": "10028", 
    "region": "NY", 
    "street_address": "444 E. 81st St.", 
    "website": ""
  }, 
  {
    "country": "United States", 
    "id": "43431780f964a52069281fe3", 
    "latitude": 40.7168657921022, 
    "locality": "New York", 
    "longitude": -73.9974679068346, 
    "name": "Happy Valley", 
    "phone": "(212) 481-2628", 
    "postal_code": "10016", 
    "region": "NY", 
    "street_address": "14 E. 27th St.", 
    "website": "http://www.happyvalleynyc.com"
  }, 
  {
    "country": "United States", 
    "id": "4f4a77f9e4b011fb779d45d1", 
    "latitude": 40.7536577647078, 
    "locality": "New York", 
    "longitude": -73.9984836563959, 
    "name": "SoHo Nightclub", 
    "phone": null, 
    "postal_code": "10010", 
    "region": "NY", 
    "street_address": "Fifth Ave. Center For Cnslng, 50 W. 23rd St. # 9, New York, Ny 10010-5271", 
    "website": ""
  }, 
  {
    "country": "United States", 
    "id": "4ec493307ee571eed64473fe", 
    "latitude": 40.805748, 
    "locality": "New York", 
    "longitude": -73.962581, 
    "name": "\uf48b\uf48a Pharmacie de la Pixie \uf489\uf6ac", 
    "phone": null, 
    "postal_code": "10025", 
    "region": "NY", 
    "street_address": "", 
    "website": ""
  }, 
  {
    "country": "United States", 
    "id": "5192f21b498e8fb81be0fd92", 
    "latitude": 40.7584603430024, 
    "locality": "New York", 
    "longitude": -73.9909084453074, 
    "name": "99 Cent Pizza", 
    "phone": null, 
    "postal_code": "", 
    "region": "NY", 
    "street_address": "", 
    "website": ""
  }, 
  {
    "country": "United States", 
    "id": "520cd53a11d2d22df46e4bd0", 
    "latitude": 40.762588, 
    "locality": "New York", 
    "longitude": -73.976294, 
    "name": "Maachiato 52nd Between 5th And 6th", 
    "phone": null, 
    "postal_code": "", 
    "region": "NY", 
    "street_address": "", 
    "website": ""
  }, 
  {
    "country": "United States", 
    "id": "4cbf6ca2020d4688a5526238", 
    "latitude": 40.7650895000221, 
    "locality": "New York", 
    "longitude": -73.9659540458391, 
    "name": "A & A Discount One", 
    "phone": null, 
    "postal_code": "10065", 
    "region": "NY", 
    "street_address": "840 Lexington Blvd.", 
    "website": ""
  }, 
  {
    "country": "United States", 
    "id": "4b4f6edcf964a5206d0627e3", 
    "latitude": 40.7443714155458, 
    "locality": "New York", 
    "longitude": -73.9830815792084, 
    "name": "Eata Pita", 
    "phone": "(212) 725-7482", 
    "postal_code": "10016", 
    "region": "NY", 
    "street_address": "441 Park Ave. South", 
    "website": ""
  }, 
  {
    "country": "United States", 
    "id": "4f327f7419836c91c7dda3be", 
    "latitude": 40.837859, 
    "locality": "New York", 
    "longitude": -73.938456, 
    "name": "Merengue Restaurante", 
    "phone": "(212) 740-4155", 
    "postal_code": "", 
    "region": "NY", 
    "street_address": "2102 Amsterdam Ave.", 
    "website": ""
  }, 
  {
    "country": "United States", 
    "id": "51264163011c183052433305", 
    "latitude": 40.724217864944, 
    "locality": "New York", 
    "longitude": -73.9978122711182, 
    "name": "Alex & Debbie's Bakery", 
    "phone": "(619) 300-0681", 
    "postal_code": "10012", 
    "region": "NY", 
    "street_address": "568 Broadway", 
    "website": ""
  }, 
  {
    "country": "United States", 
    "id": "50e1f6b7e4b05f3e994d7a9a", 
    "latitude": 40.7549475952776, 
    "locality": "New York", 
    "longitude": -73.9953904813607, 
    "name": "9th Ave Wine", 
    "phone": null, 
    "postal_code": "10018", 
    "region": "NY", 
    "street_address": "", 
    "website": ""
  }, 
  {
    "country": "United States", 
    "id": "4e2318fb1838712abe83a78d", 
    "latitude": 40.7520927627886, 
    "locality": "New York", 
    "longitude": -73.993909871563, 
    "name": "Studiofeast Doppelganger Dinner", 
    "phone": null, 
    "postal_code": "", 
    "region": "NY", 
    "street_address": "Undisclosed", 
    "website": ""
  }, 
  {
    "country": "United States", 
    "id": "5054de3be4b0c6835fa2a459", 
    "latitude": 40.7292947865272, 
    "locality": "New York", 
    "longitude": -73.9893646724052, 
    "name": "Steps in front of Jum mum", 
    "phone": null, 
    "postal_code": "10003", 
    "region": "NY", 
    "street_address": "", 
    "website": ""
  }, 
  {
    "country": "United States", 
    "id": "3fd66200f964a5204ae31ee3", 
    "latitude": 40.7487126833333, 
    "locality": "New York", 
    "longitude": -73.975844, 
    "name": "The Famous Chicken Place", 
    "phone": "(212) 687-1800", 
    "postal_code": "10016", 
    "region": "NY", 
    "street_address": "592 3rd Ave.", 
    "website": ""
  }, 
  {
    "country": "United States", 
    "id": "509fd92ee4b0bbf77722e9e8", 
    "latitude": 40.7777846549567, 
    "locality": "New York", 
    "longitude": -73.9494231329211, 
    "name": "John's Pancake House", 
    "phone": null, 
    "postal_code": "10028", 
    "region": "NY", 
    "street_address": "345 East 86th St.", 
    "website": ""
  }, 
  {
    "country": "United States", 
    "id": "4b094f8cf964a520871523e3", 
    "latitude": 40.7590904609109, 
    "locality": "New York", 
    "longitude": -73.9846801757812, 
    "name": "DoubleTree Suites Times Square", 
    "phone": "(212) 719-1600", 
    "postal_code": "10036", 
    "region": "NY", 
    "street_address": "1568 Broadway", 
    "website": "http://bit.ly/dttsqqrwebsite"
  }, 
  {
    "country": "United States", 
    "id": "4b7ae7b8f964a52020452fe3", 
    "latitude": 40.748874, 
    "locality": "Corona", 
    "longitude": -73.869056, 
    "name": "Rincon Criollo", 
    "phone": "(718) 458-0236", 
    "postal_code": "11368", 
    "region": "NY", 
    "street_address": "40-09 Junction Blvd.", 
    "website": "http://www.rincon-criollo.com"
  }, 
  {
    "country": "United States", 
    "id": "4f43516b19834bc91f55edd7", 
    "latitude": 40.75698, 
    "locality": "New York", 
    "longitude": -73.97624, 
    "name": "Au Croissant and Gourmet", 
    "phone": "(212) 750-6970", 
    "postal_code": "", 
    "region": "NY", 
    "street_address": "425 Madison Ave.", 
    "website": ""
  }, 
  {
    "country": "United States", 
    "id": "4f6fa109e4b0e0075c95588d", 
    "latitude": 40.7101097106934, 
    "locality": "New York", 
    "longitude": -74.0004501342773, 
    "name": "Le Maison de Mama's Fusion Origins", 
    "phone": null, 
    "postal_code": "10038", 
    "region": "NY", 
    "street_address": "", 
    "website": ""
  }, 
  {
    "country": "United States", 
    "id": "5021670de4b002330249bddd", 
    "latitude": 40.7174469862536, 
    "locality": "New York", 
    "longitude": -73.9941451630314, 
    "name": "Jin Mei Dumpling", 
    "phone": "(212) 608-8962", 
    "postal_code": "10002", 
    "region": "NY", 
    "street_address": "25b", 
    "website": ""
  }, 
  {
    "country": "United States", 
    "id": "5145d153e4b0887518ec0317", 
    "latitude": 40.7737405294144, 
    "locality": "New York", 
    "longitude": -73.9483152815761, 
    "name": "Yorkafe", 
    "phone": null, 
    "postal_code": "10028", 
    "region": "NY", 
    "street_address": "501 1/2 E. 83rd", 
    "website": ""
  }, 
  {
    "country": "United States", 
    "id": "3fd66200f964a520f7e71ee3", 
    "latitude": 40.753608620025, 
    "locality": "New York", 
    "longitude": -73.9664419158485, 
    "name": "Beekman Bar & Books", 
    "phone": "(212) 980-9314", 
    "postal_code": "10022", 
    "region": "NY", 
    "street_address": "889 1st Ave.", 
    "website": "http://www.barandbooks.net"
  }, 
  {
    "country": "United States", 
    "id": "4e4c3dfdbd413c4cc667e505", 
    "latitude": 40.753117, 
    "locality": "New York", 
    "longitude": -73.97483, 
    "name": "Alonti", 
    "phone": "(212) 681-8034", 
    "postal_code": "10017", 
    "region": "NY", 
    "street_address": "450 Lexington Ave.", 
    "website": ""
  }, 
  {
    "country": "United States", 
    "id": "49ff2b51f964a520e86f1fe3", 
    "latitude": 40.729951, 
    "locality": "New York", 
    "longitude": -73.999027, 
    "name": "Il Mulino", 
    "phone": "(212) 673-3783", 
    "postal_code": "10012", 
    "region": "NY", 
    "street_address": "86 W. 3rd St.", 
    "website": "http://www.ilmulino.com"
  }, 
  {
    "country": "United States", 
    "id": "4e84f35c4fc6df9744e5fc92", 
    "latitude": 40.7680942116878, 
    "locality": "New York", 
    "longitude": -73.9647674560547, 
    "name": "Starbucks", 
    "phone": "", 
    "postal_code": "10065", 
    "region": "NY", 
    "street_address": "695 Park Ave.", 
    "website": ""
  }, 
  {
    "country": "United States", 
    "id": "4e3c01af45dd68e32724fdd0", 
    "latitude": 40.72790552, 
    "locality": "New York", 
    "longitude": -74.00763247, 
    "name": "Russian Breakfast Can", 
    "phone": null, 
    "postal_code": "10014", 
    "region": "NY", 
    "street_address": "100-126 King St.", 
    "website": ""
  }, 
  {
    "country": "United States", 
    "id": "4bfe81fa2b83b7138feda998", 
    "latitude": 40.8252647546757, 
    "locality": "New York", 
    "longitude": -73.9496584787624, 
    "name": "Majestic Deli", 
    "phone": "(212) 926-2222", 
    "postal_code": "10031", 
    "region": "NY", 
    "street_address": "3520 Broadway", 
    "website": ""
  }, 
  {
    "country": "United States", 
    "id": "3fd66200f964a520d6e81ee3", 
    "latitude": 40.7814, 
    "locality": "New York", 
    "longitude": -73.9525, 
    "name": "Carnegie Hill Brewing Co.", 
    "phone": "(212) 369-0808", 
    "postal_code": "10128", 
    "region": "NY", 
    "street_address": "1600 Third Ave.", 
    "website": ""
  }, 
  {
    "country": "United States", 
    "id": "4b27d0d7f964a520788a24e3", 
    "latitude": 40.7419445342396, 
    "locality": "New York", 
    "longitude": -74.0010890007021, 
    "name": "Chipotle Mexican Grill", 
    "phone": "(212) 620-4015", 
    "postal_code": "10011", 
    "region": "NY", 
    "street_address": "149 8th Ave.", 
    "website": "http://www.chipotle.com"
  }, 
  {
    "country": "United States", 
    "id": "4cafb852aef16dcb42f2aa54", 
    "latitude": 40.724557, 
    "locality": "New York", 
    "longitude": -73.980306, 
    "name": "Homeboy's Lil Hideaway", 
    "phone": null, 
    "postal_code": "10009", 
    "region": "NY", 
    "street_address": "", 
    "website": ""
  }, 
  {
    "country": "United States", 
    "id": "4f329df919836c91c7e9376e", 
    "latitude": 40.776699, 
    "locality": "New York", 
    "longitude": -73.955299, 
    "name": "Wicker Park", 
    "phone": "(212) 734-5600", 
    "postal_code": "", 
    "region": "NY", 
    "street_address": "1469 3rd Ave.", 
    "website": "http://www.wickerparknyc.com"
  }, 
  {
    "country": "United States", 
    "id": "4a72520af964a520e2da1fe3", 
    "latitude": 40.764263, 
    "locality": "New York", 
    "longitude": -73.958486, 
    "name": "Pizza Park", 
    "phone": "(212) 879-6444", 
    "postal_code": "10065", 
    "region": "NY", 
    "street_address": "1233 1st Ave.", 
    "website": ""
  }, 
  {
    "country": "United States", 
    "id": "4c5f2806832fa59314dfecd3", 
    "latitude": 40.8054140642007, 
    "locality": "New York", 
    "longitude": -73.9502382319298, 
    "name": "Harlem's Finest Mini Market", 
    "phone": null, 
    "postal_code": "10027", 
    "region": "NY", 
    "street_address": "2001 Adam Clayton Powell, Jr. Blvd.", 
    "website": ""
  }, 
  {
    "country": "United States", 
    "id": "4b5b3c48f964a52032ed28e3", 
    "latitude": 40.867388989046, 
    "locality": "New York", 
    "longitude": -73.9232979665093, 
    "name": "Hang Lee", 
    "phone": "(212) 942-0927", 
    "postal_code": "10034", 
    "region": "NY", 
    "street_address": "666 W. 204th St.", 
    "website": ""
  }, 
  {
    "country": "United States", 
    "id": "475b9b74f964a520d34c1fe3", 
    "latitude": 40.68229137, 
    "locality": "Brooklyn", 
    "longitude": -73.993472, 
    "name": "Bar Great Harry", 
    "phone": "(718) 222-1103", 
    "postal_code": "11231", 
    "region": "NY", 
    "street_address": "280 Smith St.", 
    "website": ""
  }, 
  {
    "country": "United States", 
    "id": "4eed182e775b3c580d1b02ef", 
    "latitude": 40.7293317787125, 
    "locality": "New York", 
    "longitude": -73.9798148124654, 
    "name": "Casa De Rifkin", 
    "phone": null, 
    "postal_code": "10009", 
    "region": "NY", 
    "street_address": "525 E. 13th St., New York, Ny 10009", 
    "website": ""
  }, 
  {
    "country": "United States", 
    "id": "4f3262a719836c91c7d2a339", 
    "latitude": 40.744167, 
    "locality": "New York", 
    "longitude": -73.976309, 
    "name": "Greenfield Market", 
    "phone": "(212) 725-1700", 
    "postal_code": "", 
    "region": "NY", 
    "street_address": "605 2nd Ave.", 
    "website": ""
  }, 
  {
    "country": "United States", 
    "id": "4b4bca62f964a520cba726e3", 
    "latitude": 40.7360055499376, 
    "locality": "New York", 
    "longitude": -73.9790342740838, 
    "name": "Frank's Trattoria", 
    "phone": "(212) 677-7140", 
    "postal_code": "10010", 
    "region": "NY", 
    "street_address": "371 1st Ave.", 
    "website": ""
  }, 
  {
    "country": "United States", 
    "id": "4b070d21f964a52044f622e3", 
    "latitude": 40.7783711494931, 
    "locality": "New York", 
    "longitude": -73.981106137388, 
    "name": "CityPie", 
    "phone": "(212) 580-6969", 
    "postal_code": "10023", 
    "region": "NY", 
    "street_address": "166 W. 72nd St.", 
    "website": "http://www.citypie.com"
  }, 
  {
    "country": "United States", 
    "id": "4f3237bc19836c91c7c1bc9b", 
    "latitude": 40.743762, 
    "locality": "New York", 
    "longitude": -73.976609, 
    "name": "Dean and Deluca", 
    "phone": "(212) 696-1369", 
    "postal_code": "", 
    "region": "NY", 
    "street_address": "576 2nd Ave.", 
    "website": ""
  }, 
  {
    "country": "United States", 
    "id": "4bf9a45b4a67c928ec3927cf", 
    "latitude": 40.7145660273327, 
    "locality": "New York", 
    "longitude": -73.9902082970545, 
    "name": "One Essex St", 
    "phone": null, 
    "postal_code": "10002", 
    "region": "NY", 
    "street_address": "1 Essex St.", 
    "website": ""
  }, 
  {
    "country": "United States", 
    "id": "4d59274a3281b1f7deb0b72f", 
    "latitude": 40.7445639162888, 
    "locality": "New York", 
    "longitude": -73.9966300528613, 
    "name": "Doughnut Plant", 
    "phone": "(212) 675-9100", 
    "postal_code": "10011", 
    "region": "NY", 
    "street_address": "220 W. 23rd St.", 
    "website": "http://doughnutplant.com"
  }, 
  {
    "country": "United States", 
    "id": "4d7a9cfd7ea26ea87c33c78f", 
    "latitude": 40.749841, 
    "locality": "New York", 
    "longitude": -73.975442, 
    "name": "Victoria's Saloon", 
    "phone": null, 
    "postal_code": "10017", 
    "region": "NY", 
    "street_address": "630 3rd Ave.", 
    "website": ""
  }, 
  {
    "country": "United States", 
    "id": "50ca25c9e4b0e016497ea898", 
    "latitude": 40.733896, 
    "locality": "New York", 
    "longitude": -73.994067, 
    "name": "Brett And Kennys House Of Debauchery", 
    "phone": null, 
    "postal_code": "10003", 
    "region": "NY", 
    "street_address": "", 
    "website": ""
  }, 
  {
    "country": "United States", 
    "id": "4a8aef33f964a520ed0a20e3", 
    "latitude": 40.750715383357, 
    "locality": "New York", 
    "longitude": -73.9871149885438, 
    "name": "Herald Square Market", 
    "phone": "(212) 244-3484", 
    "postal_code": "10018", 
    "region": "NY", 
    "street_address": "968 Ave. Of The Americas", 
    "website": ""
  }, 
  {
    "country": "United States", 
    "id": "4b074d16f964a52092fb22e3", 
    "latitude": 40.8501746872465, 
    "locality": "New York", 
    "longitude": -73.9359160980641, 
    "name": "McDonald's", 
    "phone": "(212) 923-9506", 
    "postal_code": "10033", 
    "region": "NY", 
    "street_address": "4259 Broadway", 
    "website": "http://www.mcdonaldsnytristate.com"
  }, 
  {
    "country": "United States", 
    "id": "4f32cced19836c91c7fc16a6", 
    "latitude": 40.747917, 
    "locality": "New York", 
    "longitude": -73.991619, 
    "name": "Nyart Studios", 
    "phone": "(212) 695-8641", 
    "postal_code": "", 
    "region": "NY", 
    "street_address": "140 W. 30th St.", 
    "website": ""
  }, 
  {
    "country": "United States", 
    "id": "42829c80f964a5202c221fe3", 
    "latitude": 40.7537585604447, 
    "locality": "New York", 
    "longitude": -73.9857261399371, 
    "name": "Croton Reservoir Tavern", 
    "phone": "(212) 997-6836", 
    "postal_code": "10018", 
    "region": "NY", 
    "street_address": "108 W. 40th St.", 
    "website": "http://www.crotonnyc.com"
  }, 
  {
    "country": "United States", 
    "id": "4adc6af9f964a520312c21e3", 
    "latitude": 40.754933, 
    "locality": "New York", 
    "longitude": -73.971843, 
    "name": "Fresh Juice Bar", 
    "phone": null, 
    "postal_code": "", 
    "region": "NY", 
    "street_address": "48th St.", 
    "website": ""
  }, 
  {
    "country": "United States", 
    "id": "40749600f964a52051f21ee3", 
    "latitude": 40.7346126483789, 
    "locality": "New York", 
    "longitude": -73.9921767401439, 
    "name": "Bar 13", 
    "phone": "(212) 979-6677", 
    "postal_code": "10003", 
    "region": "NY", 
    "street_address": "35 E. 13th St.", 
    "website": ""
  }, 
  {
    "country": "United States", 
    "id": "4c6456575e819521802d4559", 
    "latitude": 40.722516, 
    "locality": "New York", 
    "longitude": -73.995073, 
    "name": "Liebe Gourmet Indian Fusion", 
    "phone": "(212) 796-5744", 
    "postal_code": "10012", 
    "region": "NY", 
    "street_address": "227 Mott St.", 
    "website": ""
  }, 
  {
    "country": "United States", 
    "id": "4b12e632f964a5206f9023e3", 
    "latitude": 40.7538413623838, 
    "locality": "New York", 
    "longitude": -73.9835165873622, 
    "name": "Celsius at Bryant Park", 
    "phone": "(212) 792-9603", 
    "postal_code": "10018", 
    "region": "NY", 
    "street_address": "1065 Ave. Of The Americas", 
    "website": "http://celsiusnyc.com"
  }, 
  {
    "country": "United States", 
    "id": "4e41bfc545dd4a1e0432ed97", 
    "latitude": 40.7661765475089, 
    "locality": "New York", 
    "longitude": -73.9560449123383, 
    "name": "The Allie Way Sports Bar", 
    "phone": "(917) 512-0397", 
    "postal_code": "10021", 
    "region": "NY", 
    "street_address": "413 E. 70th St.", 
    "website": "http://www.thealliewayny.com"
  }, 
  {
    "country": "United States", 
    "id": "4baec134f964a5201bd53be3", 
    "latitude": 40.740956, 
    "locality": "New York", 
    "longitude": -73.979993, 
    "name": "41 E 20th St", 
    "phone": null, 
    "postal_code": "10010", 
    "region": "NY", 
    "street_address": "41 E. 20th St.", 
    "website": ""
  }, 
  {
    "country": "United States", 
    "id": "4e4d0486bd413c4cc66e0607", 
    "latitude": 40.858802, 
    "locality": "Bronx", 
    "longitude": -73.905179, 
    "name": "Sorela's Pizza & Pasta", 
    "phone": "(718) 365-0500", 
    "postal_code": "10453", 
    "region": "NY", 
    "street_address": "34 W. 183rd St.", 
    "website": ""
  }, 
  {
    "country": "United States", 
    "id": "4b609b9bf964a520f3ef29e3", 
    "latitude": 40.7542630381462, 
    "locality": "Long Island City", 
    "longitude": -73.9300918579102, 
    "name": "city view cafe", 
    "phone": "(718) 482-8886", 
    "postal_code": "11106", 
    "region": "NY", 
    "street_address": "32-23 37th Ave.", 
    "website": ""
  }, 
  {
    "country": "United States", 
    "id": "4fd0079e6b748e9d19ee3018", 
    "latitude": 40.7184121198087, 
    "locality": "New York", 
    "longitude": -73.9939284324646, 
    "name": "Snacks Table", 
    "phone": null, 
    "postal_code": "10002", 
    "region": "NY", 
    "street_address": "Grand St.", 
    "website": ""
  }, 
  {
    "country": "United States", 
    "id": "4c2ce6d68ef52d7ffda633ba", 
    "latitude": 40.807313, 
    "locality": "New York", 
    "longitude": -73.944144, 
    "name": "Pee Dee Steak II", 
    "phone": "(212) 996-1081", 
    "postal_code": "10027", 
    "region": "NY", 
    "street_address": "50 W.125st", 
    "website": ""
  }, 
  {
    "country": "United States", 
    "id": "51831ab0498e2d9631ad4c05", 
    "latitude": 40.733019, 
    "locality": "New York", 
    "longitude": -73.976458, 
    "name": "Book Club", 
    "phone": null, 
    "postal_code": "", 
    "region": "NY", 
    "street_address": "", 
    "website": ""
  }, 
  {
    "country": "United States", 
    "id": "4f32342e19836c91c7c05f5b", 
    "latitude": 40.719549, 
    "locality": "New York", 
    "longitude": -73.97766, 
    "name": "Puerto Rican Family Restaurant", 
    "phone": "(212) 228-3725", 
    "postal_code": "", 
    "region": "NY", 
    "street_address": "442 E. Houston St.", 
    "website": ""
  }, 
  {
    "country": "United States", 
    "id": "4f6892e47beb0be5506bd877", 
    "latitude": 40.727258767439, 
    "locality": "New York", 
    "longitude": -73.9843153953552, 
    "name": "Macaron Parlour", 
    "phone": "(347) 979-6023", 
    "postal_code": "10009", 
    "region": "NY", 
    "street_address": "111 Saint Marks Pl.", 
    "website": ""
  }, 
  {
    "country": "United States", 
    "id": "4e4ce20dbd413c4cc66cef2f", 
    "latitude": 40.782136, 
    "locality": "New York", 
    "longitude": -73.953583, 
    "name": "Sushi Maru", 
    "phone": "(212) 996-6900", 
    "postal_code": "10128", 
    "region": "NY", 
    "street_address": "1364 Lexington Ave.", 
    "website": ""
  }, 
  {
    "country": "United States", 
    "id": "4e867b8e0aafdd0b12500396", 
    "latitude": 40.719687, 
    "locality": "New York", 
    "longitude": -73.987162, 
    "name": "Kicking It With Radiohead", 
    "phone": null, 
    "postal_code": "", 
    "region": "NY", 
    "street_address": "", 
    "website": ""
  }, 
  {
    "country": "United States", 
    "id": "4b27c75af964a520c78924e3", 
    "latitude": 40.8094769153748, 
    "locality": "New York", 
    "longitude": -73.9591409556647, 
    "name": "Apple Tree Supermarket", 
    "phone": "(212) 865-8840", 
    "postal_code": "10027", 
    "region": "NY", 
    "street_address": "1225 Amsterdam Ave.", 
    "website": ""
  }, 
  {
    "country": "United States", 
    "id": "45b242f8f964a520a1411fe3", 
    "latitude": 40.7361868327362, 
    "locality": "New York", 
    "longitude": -74.0009914443955, 
    "name": "Elephant & Castle", 
    "phone": "(212) 243-1400", 
    "postal_code": "10011", 
    "region": "NY", 
    "street_address": "68 Greenwich Ave.", 
    "website": "http://www.elephantandcastle.com"
  }, 
  {
    "country": "United States", 
    "id": "4e7af674b80330b08365ce71", 
    "latitude": 40.85949352, 
    "locality": "New York", 
    "longitude": -73.92555942, 
    "name": "Habibi 188th", 
    "phone": null, 
    "postal_code": "", 
    "region": "NY", 
    "street_address": "", 
    "website": ""
  }, 
  {
    "country": "United States", 
    "id": "50092c1ce4b0464557ca53ab", 
    "latitude": 40.7654442650919, 
    "locality": "New York", 
    "longitude": -73.9834018047158, 
    "name": "The Modern, Lounge Room", 
    "phone": null, 
    "postal_code": "10019", 
    "region": "NY", 
    "street_address": "243 West 55th St.", 
    "website": ""
  }, 
  {
    "country": "United States", 
    "id": "4f32647c19836c91c7d356eb", 
    "latitude": 40.804021, 
    "locality": "New York", 
    "longitude": -73.954497, 
    "name": "Nice N Easy Restaurant", 
    "phone": "(212) 531-1681", 
    "postal_code": "", 
    "region": "NY", 
    "street_address": "239 W. 116th St.", 
    "website": ""
  }, 
  {
    "country": "United States", 
    "id": "4fcbeaf2e4b092ee237d0271", 
    "latitude": 40.7138331980139, 
    "locality": "New York", 
    "longitude": -74.0098286962727, 
    "name": "Back Forty South east", 
    "phone": null, 
    "postal_code": "10007", 
    "region": "NY", 
    "street_address": "50 Murray St.", 
    "website": ""
  }, 
  {
    "country": "United States", 
    "id": "4d0c1650f393224b2b5d14ee", 
    "latitude": 40.7151919083982, 
    "locality": "New York", 
    "longitude": -74.0092277526855, 
    "name": "Smyth Lobby Bar", 
    "phone": "(212) 587-7000", 
    "postal_code": "10007", 
    "region": "NY", 
    "street_address": "85 W. Broadway", 
    "website": "http://www.thompsonhotels.com/hotels/nyc/smyth-tribeca/drink/smyth-lobby-bar"
  }, 
  {
    "country": "United States", 
    "id": "4dde955dfa769803ef952f1d", 
    "latitude": 40.7388356913476, 
    "locality": "New York", 
    "longitude": -73.9837789535522, 
    "name": "Hidden City Cafe", 
    "phone": "(212) 228-7841", 
    "postal_code": "10010", 
    "region": "NY", 
    "street_address": "115 E. 23rd St.", 
    "website": ""
  }, 
  {
    "country": "United States", 
    "id": "50e4d8e4e4b02660b91025d6", 
    "latitude": 40.7114143371582, 
    "locality": "New York", 
    "longitude": -73.9949340820312, 
    "name": "Studio 31", 
    "phone": null, 
    "postal_code": "10002", 
    "region": "NY", 
    "street_address": "", 
    "website": ""
  }, 
  {
    "country": "United States", 
    "id": "4be3de22b02ec9b6e47e50c0", 
    "latitude": 40.7818299463909, 
    "locality": "New York", 
    "longitude": -73.9553124329507, 
    "name": "Annie Fruit & Vegetable", 
    "phone": "", 
    "postal_code": "10128", 
    "region": "NY", 
    "street_address": "1330 Lexington Ave.", 
    "website": ""
  }, 
  {
    "country": "United States", 
    "id": "5123cc09e4b05424264ac373", 
    "latitude": 40.713152545191, 
    "locality": "New York", 
    "longitude": -74.0091802624496, 
    "name": "Lenny's Ultimate Sandwich", 
    "phone": null, 
    "postal_code": "10007", 
    "region": "NY", 
    "street_address": "25 Park Pl.", 
    "website": ""
  }, 
  {
    "country": "United States", 
    "id": "49f8eb99f964a5203b6d1fe3", 
    "latitude": 40.727684475, 
    "locality": "New York", 
    "longitude": -73.979253, 
    "name": "Fu Sushi", 
    "phone": "(212) 375-1426", 
    "postal_code": "10009", 
    "region": "NY", 
    "street_address": "182 Ave. B", 
    "website": "http://fusushi.com"
  }, 
  {
    "country": "United States", 
    "id": "4c1aa814c09ed13a6f57828e", 
    "latitude": 40.7408258693624, 
    "locality": "New York", 
    "longitude": -73.9933015556966, 
    "name": "West Side Club", 
    "phone": "(212) 691-2700", 
    "postal_code": "10010", 
    "region": "NY", 
    "street_address": "27 W. 20th St., New York, Ny 10010", 
    "website": ""
  }, 
  {
    "country": "United States", 
    "id": "4f4eb85de4b07dc4ef711b04", 
    "latitude": 40.7384378976541, 
    "locality": "New York", 
    "longitude": -73.9822424961431, 
    "name": "B.E.A.N.S. Chicken", 
    "phone": "(646) 370-4400", 
    "postal_code": "10010", 
    "region": "NY", 
    "street_address": "219 E. 23rd St.", 
    "website": ""
  }, 
  {
    "country": "United States", 
    "id": "4b4b3032f964a520129426e3", 
    "latitude": 40.7183562214602, 
    "locality": "New York", 
    "longitude": -73.9852497969858, 
    "name": "VIP Cafe and Bakery", 
    "phone": "(212) 375-1368", 
    "postal_code": "10002", 
    "region": "NY", 
    "street_address": "80 Clinton St.", 
    "website": ""
  }, 
  {
    "country": "United States", 
    "id": "4fc9a68ce4b0efceb30209f9", 
    "latitude": 40.718166, 
    "locality": "New York", 
    "longitude": -73.993586, 
    "name": "Galary Bar", 
    "phone": null, 
    "postal_code": "10002", 
    "region": "NY", 
    "street_address": "", 
    "website": ""
  }, 
  {
    "country": "United States", 
    "id": "4d3faec2255d8cfab4185e05", 
    "latitude": 40.8430023090679, 
    "locality": "New York", 
    "longitude": -73.9383558149642, 
    "name": "Brasbytarlen Deli Corporation", 
    "phone": "(212) 685-1230", 
    "postal_code": "10032", 
    "region": "NY", 
    "street_address": "1230 St. Nicholas Ave.", 
    "website": ""
  }, 
  {
    "country": "United States", 
    "id": "4f91bd9b7beb818efa883f7a", 
    "latitude": 40.742310655746, 
    "locality": "New York", 
    "longitude": -73.9840216301916, 
    "name": "Baskin-Robbins", 
    "phone": "(212) 228-0442", 
    "postal_code": "10003", 
    "region": "NY", 
    "street_address": "243 3rd Ave.", 
    "website": "http://www.baskinrobbins.com"
  }, 
  {
    "country": "United States", 
    "id": "4f3288dc19836c91c7e13f25", 
    "latitude": 40.7356, 
    "locality": "New York", 
    "longitude": -73.9981, 
    "name": "Flacos Taco and Tequila", 
    "phone": "(212) 243-8226", 
    "postal_code": "", 
    "region": "NY", 
    "street_address": "470 Ave. Of The Americas", 
    "website": ""
  }, 
  {
    "country": "United States", 
    "id": "4c6587c3877595214d9ed84c", 
    "latitude": 40.7502358940284, 
    "locality": "New York", 
    "longitude": -73.9916372854464, 
    "name": "Club Penn", 
    "phone": null, 
    "postal_code": "", 
    "region": "NY", 
    "street_address": "Penn Station", 
    "website": ""
  }, 
  {
    "country": "United States", 
    "id": "4f328a9419836c91c7e1e270", 
    "latitude": 40.756165, 
    "locality": "New York", 
    "longitude": -73.985035, 
    "name": "Spanky's BBQ", 
    "phone": "(212) 575-5848", 
    "postal_code": "", 
    "region": "NY", 
    "street_address": "127 W. 43rd St.", 
    "website": "http://spankysnyc.com"
  }, 
  {
    "country": "United States", 
    "id": "50f7ff03e4b0f00a61afbbe1", 
    "latitude": 40.754134, 
    "locality": "New York", 
    "longitude": -73.987571, 
    "name": "Starbucks Blonde Sampling Event", 
    "phone": null, 
    "postal_code": "10018", 
    "region": "NY", 
    "street_address": "", 
    "website": ""
  }, 
  {
    "country": "United States", 
    "id": "511d27c3e4b0887c8789512d", 
    "latitude": 40.7412796020508, 
    "locality": "New York", 
    "longitude": -73.9988555908203, 
    "name": "Great Gyro Truck", 
    "phone": null, 
    "postal_code": "10011", 
    "region": "NY", 
    "street_address": "17th St.", 
    "website": ""
  }, 
  {
    "country": "United States", 
    "id": "4ca0f0a60e9bb1f788a4fc5f", 
    "latitude": 40.63591861, 
    "locality": "Brooklyn", 
    "longitude": -73.974536, 
    "name": "No. 1 Chinese", 
    "phone": null, 
    "postal_code": "11218", 
    "region": "NY", 
    "street_address": "420 Ditmas Ave.", 
    "website": ""
  }, 
  {
    "country": "United States", 
    "id": "51f474aa498e369ef3ccdabc", 
    "latitude": 40.7612071055491, 
    "locality": "New York", 
    "longitude": -73.9577117259317, 
    "name": "The Otter", 
    "phone": null, 
    "postal_code": "", 
    "region": "NY", 
    "street_address": "", 
    "website": ""
  }, 
  {
    "country": "United States", 
    "id": "4aff66d3f964a5203b3822e3", 
    "latitude": 40.7741140939317, 
    "locality": "New York", 
    "longitude": -73.9486022903057, 
    "name": "Mumtaz", 
    "phone": "(212) 879-4797", 
    "postal_code": "10028", 
    "region": "NY", 
    "street_address": "1493 3rd Ave.", 
    "website": ""
  }, 
  {
    "country": "United States", 
    "id": "4a837df3f964a52050fb1fe3", 
    "latitude": 40.7793900806396, 
    "locality": "New York", 
    "longitude": -73.9772780511405, 
    "name": "Mughlai", 
    "phone": "(212) 724-6363", 
    "postal_code": "10023", 
    "region": "NY", 
    "street_address": "320 Columbus Ave.", 
    "website": "http://mughlainyc.com"
  }, 
  {
    "country": "United States", 
    "id": "4f43624119834bc91f566d31", 
    "latitude": 40.755755, 
    "locality": "New York", 
    "longitude": -73.982584, 
    "name": "Aloha 44", 
    "phone": "(212) 354-1556", 
    "postal_code": "", 
    "region": "NY", 
    "street_address": "67 W. 44th St.", 
    "website": ""
  }, 
  {
    "country": "United States", 
    "id": "4f323ea219836c91c7c478b5", 
    "latitude": 40.718296, 
    "locality": "New York", 
    "longitude": -73.997848, 
    "name": "Akram Restaurant Management", 
    "phone": "(212) 431-3934", 
    "postal_code": "", 
    "region": "NY", 
    "street_address": "129 Mulberry St.", 
    "website": "http://sangennaro.org"
  }, 
  {
    "country": "United States", 
    "id": "4acb48f9f964a52067c320e3", 
    "latitude": 40.7040349292157, 
    "locality": "New York", 
    "longitude": -74.0118141525303, 
    "name": "Giuliano's", 
    "phone": "(212) 344-0220", 
    "postal_code": "10004", 
    "region": "NY", 
    "street_address": "88 Broad St.", 
    "website": ""
  }, 
  {
    "country": "United States", 
    "id": "50213d52e4b06fef237a2508", 
    "latitude": 40.7692252025954, 
    "locality": "New York", 
    "longitude": -73.9883775694677, 
    "name": "Moshiko Falafel & Grill", 
    "phone": "(212) 333-3636", 
    "postal_code": "10019", 
    "region": "NY", 
    "street_address": "877 10th Ave.", 
    "website": ""
  }, 
  {
    "country": "United States", 
    "id": "4f5bd8e9e4b053fd681bf717", 
    "latitude": 40.6738036533588, 
    "locality": "Brooklyn", 
    "longitude": -73.9568335192807, 
    "name": "Little Zelda", 
    "phone": "(347) 378-2915", 
    "postal_code": "11238", 
    "region": "NY", 
    "street_address": "728 Franklin Ave.", 
    "website": ""
  }, 
  {
    "country": "United States", 
    "id": "4f453c1619836ed001996dba", 
    "latitude": 40.72448, 
    "locality": "New York", 
    "longitude": -73.99428, 
    "name": "La Cocina Deli Grocery", 
    "phone": "(212) 219-8084", 
    "postal_code": "", 
    "region": "NY", 
    "street_address": "55 E. Houston St.", 
    "website": ""
  }, 
  {
    "country": "United States", 
    "id": "3fd66200f964a520d1e31ee3", 
    "latitude": 40.7452748056754, 
    "locality": "New York", 
    "longitude": -73.9925550121181, 
    "name": "Black Door", 
    "phone": "(212) 645-0215", 
    "postal_code": "10001", 
    "region": "NY", 
    "street_address": "127 W. 26th St.", 
    "website": ""
  }, 
  {
    "country": "United States", 
    "id": "50e93dace4b0c5df36a1812c", 
    "latitude": 40.776132, 
    "locality": "New York", 
    "longitude": -73.954456, 
    "name": "The Basement", 
    "phone": null, 
    "postal_code": "10028", 
    "region": "NY", 
    "street_address": "", 
    "website": ""
  }, 
  {
    "country": "United States", 
    "id": "4a7a0832f964a5203ce81fe3", 
    "latitude": 40.7452592102416, 
    "locality": "New York", 
    "longitude": -73.9826098025865, 
    "name": "Chipotle Mexican Grill", 
    "phone": "(212) 689-0305", 
    "postal_code": "10016", 
    "region": "NY", 
    "street_address": "464 Park Ave. S.", 
    "website": "http://www.chipotle.com"
  }, 
  {
    "country": "United States", 
    "id": "4fef2438e4b0f5b9d81b65c9", 
    "latitude": 40.7215151743136, 
    "locality": "New York", 
    "longitude": -74.0046583796203, 
    "name": "Everyman Espresso", 
    "phone": "", 
    "postal_code": "10013", 
    "region": "NY", 
    "street_address": "301 W. Broadway", 
    "website": ""
  }, 
  {
    "country": "United States", 
    "id": "4bbb9caaafe1b7139a6b2f4b", 
    "latitude": 40.7563157453188, 
    "locality": "New York", 
    "longitude": -73.9934909372581, 
    "name": "Mercato", 
    "phone": "(212) 643-2000", 
    "postal_code": "10018", 
    "region": "NY", 
    "street_address": "352 W. 39th St.", 
    "website": ""
  }, 
  {
    "country": "United States", 
    "id": "4f170e5ce4b03f4c05480976", 
    "latitude": 40.8261985778809, 
    "locality": "New York", 
    "longitude": -73.9498748779297, 
    "name": "A-Z Pass Deli", 
    "phone": null, 
    "postal_code": "10031", 
    "region": "NY", 
    "street_address": "561 W. 145th St., New York, Ny 10031", 
    "website": ""
  }, 
  {
    "country": "United States", 
    "id": "4ba3a435f964a520084f38e3", 
    "latitude": 40.719077, 
    "locality": "New York", 
    "longitude": -74.0066267888889, 
    "name": "Franklin Caf\u00e9 Tavola Calda", 
    "phone": "(212) 625-8833", 
    "postal_code": "10013", 
    "region": "NY", 
    "street_address": "222 W. Broadway", 
    "website": "http://www.franklinstationcafe.com"
  }, 
  {
    "country": "United States", 
    "id": "4f4c6fd8e4b00b42c32770d1", 
    "latitude": 40.7341141178137, 
    "locality": "New York", 
    "longitude": -74.0071546098823, 
    "name": "Ny Cab", 
    "phone": null, 
    "postal_code": "10013", 
    "region": "NY", 
    "street_address": "", 
    "website": ""
  }, 
  {
    "country": "United States", 
    "id": "4e4e4ca5bd4101d0d7a72894", 
    "latitude": 40.7341060534342, 
    "locality": "New York", 
    "longitude": -73.9890892023287, 
    "name": "Cafe Amore's - 14th St.", 
    "phone": "(212) 420-8287", 
    "postal_code": "10003", 
    "region": "NY", 
    "street_address": "104 E. 14th St.", 
    "website": ""
  }, 
  {
    "country": "United States", 
    "id": "4cc32fe042d1b60c1ea51513", 
    "latitude": 40.739794, 
    "locality": "New York", 
    "longitude": -73.979801, 
    "name": "Deli Superette", 
    "phone": null, 
    "postal_code": "", 
    "region": "NY", 
    "street_address": "", 
    "website": ""
  }, 
  {
    "country": "", 
    "id": "51a9531dc640178c2c2be609", 
    "latitude": 40.759932, 
    "locality": "New York", 
    "longitude": -73.991867, 
    "name": "L'Allegria New York City", 
    "phone": null, 
    "postal_code": "10036", 
    "region": "NY", 
    "street_address": "623 9th Ave.", 
    "website": "http://www.lallegriarestaurant.com"
  }, 
  {
    "country": "United States", 
    "id": "50ee18bfe4b0fa2c203f73d3", 
    "latitude": 40.7933994055602, 
    "locality": "New York", 
    "longitude": -73.9665337500651, 
    "name": "Anelly Haze hookah lounge", 
    "phone": null, 
    "postal_code": "10025", 
    "region": "NY", 
    "street_address": "", 
    "website": ""
  }, 
  {
    "country": "United States", 
    "id": "4ed907ab722e1da3008b1371", 
    "latitude": 40.7099815683884, 
    "locality": "New York", 
    "longitude": -74.0079924177954, 
    "name": "Kortako", 
    "phone": "(212) 964-4625", 
    "postal_code": "10038", 
    "region": "NY", 
    "street_address": "80 Nassau St.", 
    "website": "http://www.kortako.com"
  }, 
  {
    "country": "United States", 
    "id": "4c50ba549d642d7fecd95ddc", 
    "latitude": 40.7172193924649, 
    "locality": "New York", 
    "longitude": -73.9944435810639, 
    "name": "New Kim Tuong", 
    "phone": "(212) 966-2878", 
    "postal_code": "10002", 
    "region": "NY", 
    "street_address": "83 Chrystie St.", 
    "website": ""
  }, 
  {
    "country": "United States", 
    "id": "4bdee1b70ee3a5934b2932b0", 
    "latitude": 40.7687119251485, 
    "locality": "New York", 
    "longitude": -73.9925440275803, 
    "name": "Westside Market Place", 
    "phone": "(212) 581-5614", 
    "postal_code": "10019", 
    "region": "NY", 
    "street_address": "790 11th Ave.", 
    "website": ""
  }, 
  {
    "country": "United States", 
    "id": "4cb28a4275ebb60c4ce2d5ad", 
    "latitude": 40.761119, 
    "locality": "New York", 
    "longitude": -73.997891, 
    "name": "Rancho Fabuloso", 
    "phone": null, 
    "postal_code": "10036", 
    "region": "NY", 
    "street_address": "", 
    "website": ""
  }, 
  {
    "country": "United States", 
    "id": "4f4edb00e4b0b5f5b06e5cf1", 
    "latitude": 40.7583331136034, 
    "locality": "New York", 
    "longitude": -73.9841995426903, 
    "name": "Le Marais bar", 
    "phone": null, 
    "postal_code": "10036", 
    "region": "NY", 
    "street_address": "", 
    "website": ""
  }, 
  {
    "country": "United States", 
    "id": "4c1ebb3ab4e62d7fd2c1de93", 
    "latitude": 40.7711680088568, 
    "locality": "New York", 
    "longitude": -73.9566383617047, 
    "name": "Hanabi Japanese Restaurant", 
    "phone": "(212) 570-1888", 
    "postal_code": "10021", 
    "region": "NY", 
    "street_address": "1450 Second Ave.", 
    "website": "http://www.hanabijapaneserestaurant.com"
  }, 
  {
    "country": "United States", 
    "id": "4a316f9af964a520cc991fe3", 
    "latitude": 40.7639475224509, 
    "locality": "New York", 
    "longitude": -73.9669183053717, 
    "name": "Ginza Japanese Restaurant", 
    "phone": "(212) 888-7898", 
    "postal_code": "10065", 
    "region": "NY", 
    "street_address": "800 Lexington Ave.", 
    "website": "http://ginzanyc.com"
  }, 
  {
    "country": "United States", 
    "id": "4ed932542c5b50ab9d16e1f3", 
    "latitude": 40.7563925089765, 
    "locality": "New York", 
    "longitude": -73.9932326896279, 
    "name": "Bob's Backyard BBQ", 
    "phone": null, 
    "postal_code": "10018", 
    "region": "NY", 
    "street_address": "", 
    "website": ""
  }, 
  {
    "country": "United States", 
    "id": "4d06216754d0236a81b0f7d5", 
    "latitude": 40.759954, 
    "locality": "New York", 
    "longitude": -73.982845, 
    "name": "Ali's Coffee Cart", 
    "phone": "", 
    "postal_code": "", 
    "region": "NY", 
    "street_address": "49th St.", 
    "website": ""
  }, 
  {
    "country": "United States", 
    "id": "51c756c6498e7b8d56fa85ae", 
    "latitude": 40.720329, 
    "locality": "New York", 
    "longitude": -73.9969, 
    "name": "Pat's Bar", 
    "phone": null, 
    "postal_code": "", 
    "region": "NY", 
    "street_address": "", 
    "website": ""
  }, 
  {
    "country": "United States", 
    "id": "4ba27d02f964a52092fd37e3", 
    "latitude": 40.7503130678784, 
    "locality": "New York", 
    "longitude": -73.9882850646973, 
    "name": "Cucina & Co.", 
    "phone": "(212) 868-2388", 
    "postal_code": "10001", 
    "region": "NY", 
    "street_address": "151 W. 34th St.", 
    "website": "http://rapatina.com"
  }, 
  {
    "country": "United States", 
    "id": "4f8cc5cbe4b00c10ebadaa35", 
    "latitude": 40.745446, 
    "locality": "New York", 
    "longitude": -73.978562, 
    "name": "Smash Rooftop", 
    "phone": null, 
    "postal_code": "10016", 
    "region": "NY", 
    "street_address": "", 
    "website": ""
  }, 
  {
    "country": "United States", 
    "id": "522b6da511d2a6f8f7a6798f", 
    "latitude": 40.7630195617676, 
    "locality": "New York", 
    "longitude": -73.9700546264648, 
    "name": "Le Bilboquet (new location)", 
    "phone": null, 
    "postal_code": "10022", 
    "region": "NY", 
    "street_address": "20 E. 60th St.", 
    "website": ""
  }, 
  {
    "country": "United States", 
    "id": "3fd66200f964a5203de71ee3", 
    "latitude": 40.7324313142969, 
    "locality": "New York", 
    "longitude": -74.0017489391183, 
    "name": "Slaughtered Lamb Pub", 
    "phone": "(212) 627-5262", 
    "postal_code": "10014", 
    "region": "NY", 
    "street_address": "182 W. 4th St.", 
    "website": "http://slaughteredlambpub.com"
  }, 
  {
    "country": "United States", 
    "id": "3fd66200f964a52013e81ee3", 
    "latitude": 40.7604820718664, 
    "locality": "New York", 
    "longitude": -73.9745748139013, 
    "name": "BiCE Ristorante", 
    "phone": "(212) 688-1999", 
    "postal_code": "10022", 
    "region": "NY", 
    "street_address": "7 E. 54th St.", 
    "website": "http://www.bicenewyork.com"
  }, 
  {
    "country": "United States", 
    "id": "4b9893a6f964a520804735e3", 
    "latitude": 40.803799, 
    "locality": "New York", 
    "longitude": -73.947693, 
    "name": "The Den Harlem", 
    "phone": null, 
    "postal_code": "10026", 
    "region": "NY", 
    "street_address": "195 Lenox Ave.", 
    "website": ""
  }, 
  {
    "country": "United States", 
    "id": "49de2c9df964a5202c601fe3", 
    "latitude": 40.7534656601022, 
    "locality": "New York", 
    "longitude": -73.9871551617011, 
    "name": "Hale & Hearty", 
    "phone": "(212) 354-1199", 
    "postal_code": "10018", 
    "region": "NY", 
    "street_address": "1410 Broadway", 
    "website": ""
  }, 
  {
    "country": "United States", 
    "id": "4d38f531a558a1cde4c1cd43", 
    "latitude": 40.7282425590861, 
    "locality": "New York", 
    "longitude": -73.9821267127991, 
    "name": "Tompkins Square Bagels", 
    "phone": "(646) 351-6520", 
    "postal_code": "10009", 
    "region": "NY", 
    "street_address": "165 Ave. A", 
    "website": "http://tompkinssquarebagels.com"
  }, 
  {
    "country": "United States", 
    "id": "4b7c81b0f964a5208f972fe3", 
    "latitude": 40.724171, 
    "locality": "New York", 
    "longitude": -73.98764275, 
    "name": "New Double Dragon", 
    "phone": "(212) 598-0730", 
    "postal_code": "10003", 
    "region": "NY", 
    "street_address": "37 1st Ave.", 
    "website": ""
  }, 
  {
    "country": "United States", 
    "id": "48970c5cf964a52078511fe3", 
    "latitude": 40.7230859252457, 
    "locality": "New York", 
    "longitude": -73.9890145957816, 
    "name": "Macondo", 
    "phone": "(212) 473-9900", 
    "postal_code": "10002", 
    "region": "NY", 
    "street_address": "157 E. Houston St.", 
    "website": "http://www.macondonyc.com"
  }, 
  {
    "country": "United States", 
    "id": "517732ade4b01baf4729f059", 
    "latitude": 40.8004346672798, 
    "locality": "New York", 
    "longitude": -73.9620740003981, 
    "name": "Hunan Chen's Kitchen", 
    "phone": "(212) 222-1118", 
    "postal_code": "10025", 
    "region": "NY", 
    "street_address": "1003 Columbus Ave.", 
    "website": ""
  }, 
  {
    "country": "United States", 
    "id": "4165d880f964a5207b1d1fe3", 
    "latitude": 40.73488573, 
    "locality": "New York", 
    "longitude": -73.979804, 
    "name": "Coopertown Diner", 
    "phone": "(212) 677-7811", 
    "postal_code": "10003", 
    "region": "NY", 
    "street_address": "339 1st Ave.", 
    "website": ""
  }, 
  {
    "country": "United States", 
    "id": "4edae02c9911a3e78dd03897", 
    "latitude": 40.7420454508718, 
    "locality": "New York", 
    "longitude": -74.0007618999484, 
    "name": "Bareburger", 
    "phone": "(212) 414-2273", 
    "postal_code": "10011", 
    "region": "NY", 
    "street_address": "153 8th Ave.", 
    "website": "http://www.bareburger.com"
  }, 
  {
    "country": "United States", 
    "id": "4f320c4e19833175d60b51d3", 
    "latitude": 40.795502, 
    "locality": "New York", 
    "longitude": -73.934303, 
    "name": "Caridad Restaurant", 
    "phone": "(917) 492-8600", 
    "postal_code": "", 
    "region": "NY", 
    "street_address": "455 E. 116th St.", 
    "website": ""
  }, 
  {
    "country": "United States", 
    "id": "49c39a0df964a52062561fe3", 
    "latitude": 40.746167, 
    "locality": "New York", 
    "longitude": -74.001636, 
    "name": "Chelsea Cottage", 
    "phone": "(212) 366-4881", 
    "postal_code": "10011", 
    "region": "NY", 
    "street_address": "206 9th Ave.", 
    "website": ""
  }, 
  {
    "country": "United States", 
    "id": "4db60dd04df05e5aaaff8c23", 
    "latitude": 40.7724346016685, 
    "locality": "New York", 
    "longitude": -73.9607882876477, 
    "name": "Eats", 
    "phone": "(212) 396-3287", 
    "postal_code": "10021", 
    "region": "NY", 
    "street_address": "1055 Lexington Ave.", 
    "website": ""
  }, 
  {
    "country": "United States", 
    "id": "4b2574e7f964a5203d7224e3", 
    "latitude": 40.6203437515251, 
    "locality": "New York", 
    "longitude": -74.0992282681353, 
    "name": "Marie's Gourmet", 
    "phone": "(718) 981-4664", 
    "postal_code": "10301", 
    "region": "NY", 
    "street_address": "977 Victory Blvd.", 
    "website": ""
  }, 
  {
    "country": "United States", 
    "id": "4d91610e033ba35d18416f0d", 
    "latitude": 40.7560580125, 
    "locality": "New York", 
    "longitude": -73.993135525, 
    "name": "Randy's Room.  Hiii Boys.  :-)", 
    "phone": null, 
    "postal_code": "10018", 
    "region": "NY", 
    "street_address": "339 W. 39th St., Rm 1404", 
    "website": ""
  }, 
  {
    "country": "United States", 
    "id": "50e8ecafe4b07cd243402e05", 
    "latitude": 40.751631, 
    "locality": "New York", 
    "longitude": -73.978565, 
    "name": "Blue Violin", 
    "phone": null, 
    "postal_code": "10017", 
    "region": "NY", 
    "street_address": "", 
    "website": ""
  }, 
  {
    "country": "United States", 
    "id": "4f32589219836c91c7cead37", 
    "latitude": 40.738363, 
    "locality": "New York", 
    "longitude": -73.982029, 
    "name": "Tan Tat Restaurant", 
    "phone": "(212) 532-6577", 
    "postal_code": "", 
    "region": "NY", 
    "street_address": "221 E. 23rd St.", 
    "website": ""
  }, 
  {
    "country": "United States", 
    "id": "4f32b6e319836c91c7f283ea", 
    "latitude": 40.716458, 
    "locality": "New York", 
    "longitude": -73.990221, 
    "name": "Michaels Seafood", 
    "phone": "(212) 431-6256", 
    "postal_code": "", 
    "region": "NY", 
    "street_address": "49 Ludlow St.", 
    "website": ""
  }, 
  {
    "country": "United States", 
    "id": "4d0ee6eaba378cfad34e6e93", 
    "latitude": 40.8208018541336, 
    "locality": "New York", 
    "longitude": -73.943538, 
    "name": "(2657) Food Center Inc.", 
    "phone": null, 
    "postal_code": "10030", 
    "region": "NY", 
    "street_address": "2657 8th Ave.", 
    "website": ""
  }, 
  {
    "country": "United States", 
    "id": "5181a74d498e1374cfaf3a12", 
    "latitude": 40.774655541911, 
    "locality": "New York", 
    "longitude": -73.9548761946604, 
    "name": "Club 2099 - NYC", 
    "phone": null, 
    "postal_code": "10075", 
    "region": "NY", 
    "street_address": "East 80th St.", 
    "website": ""
  }, 
  {
    "country": "United States", 
    "id": "4d5eeeb6865a224b48599885", 
    "latitude": 40.7678975833333, 
    "locality": "New York", 
    "longitude": -73.9847956333333, 
    "name": "Pape's Cafe", 
    "phone": null, 
    "postal_code": "10019", 
    "region": "NY", 
    "street_address": "425 W. 57th St.", 
    "website": ""
  }, 
  {
    "country": "United States", 
    "id": "49a5c43df964a5209d521fe3", 
    "latitude": 40.7559736354593, 
    "locality": "New York", 
    "longitude": -73.9896114473463, 
    "name": "Inakaya", 
    "phone": "(212) 354-2195", 
    "postal_code": "10018", 
    "region": "NY", 
    "street_address": "231 W. 40th St.", 
    "website": "http://www.inakayany.com"
  }, 
  {
    "country": "United States", 
    "id": "4ab966c3f964a5203c7f20e3", 
    "latitude": 40.7515914313463, 
    "locality": "New York", 
    "longitude": -73.9741214009634, 
    "name": "Starbucks", 
    "phone": "(646) 865-1250", 
    "postal_code": "10017", 
    "region": "NY", 
    "street_address": "685 3rd Ave.", 
    "website": "http://www.starbucks.com"
  }, 
  {
    "country": "United States", 
    "id": "51fba99b498e1f6767ff74a2", 
    "latitude": 40.7536076510749, 
    "locality": "Nyc", 
    "longitude": -73.9925440275803, 
    "name": "SUBWAY", 
    "phone": null, 
    "postal_code": "10001", 
    "region": "NY", 
    "street_address": "525 Eighth Ave.", 
    "website": "http://subway.com"
  }, 
  {
    "country": "United States", 
    "id": "4f8e0055e4b0e25285fab942", 
    "latitude": 40.7162542793308, 
    "locality": "New York", 
    "longitude": -73.9957577626411, 
    "name": "Diamond Hill", 
    "phone": "(212) 966-2278", 
    "postal_code": "10002", 
    "region": "NY", 
    "street_address": "145 Canal St., New York, Ny 10002", 
    "website": "http://www.diamondhillnyc.com"
  }, 
  {
    "country": "United States", 
    "id": "3fd66200f964a52080e41ee3", 
    "latitude": 40.738012072962, 
    "locality": "New York", 
    "longitude": -73.9887678200731, 
    "name": "Craft", 
    "phone": "(212) 780-0880", 
    "postal_code": "10003", 
    "region": "NY", 
    "street_address": "43 E. 19th St.", 
    "website": "http://craftrestaurantsinc.com/craft-new-york/"
  }, 
  {
    "country": "United States", 
    "id": "4be58a462468c92832210043", 
    "latitude": 40.76756, 
    "locality": "New York", 
    "longitude": -73.95241, 
    "name": "Tropicalia", 
    "phone": "(212) 717-7179", 
    "postal_code": "10021", 
    "region": "NY", 
    "street_address": "York", 
    "website": "http://www.tropicaliabraziliangrill.com"
  }, 
  {
    "country": "United States", 
    "id": "4d7e6dc12ff9b60c932eac47", 
    "latitude": 40.755101, 
    "locality": "New York", 
    "longitude": -73.984109, 
    "name": "Kero's Halal Food", 
    "phone": null, 
    "postal_code": "", 
    "region": "NY", 
    "street_address": "Moving Target", 
    "website": ""
  }, 
  {
    "country": "United States", 
    "id": "4daf72620cb6ead7fdcfaa2c", 
    "latitude": 40.8011125684566, 
    "locality": "New York", 
    "longitude": -73.9447161559502, 
    "name": "117 Deli Grocery", 
    "phone": null, 
    "postal_code": "10026", 
    "region": "NY", 
    "street_address": "1782 Madison Avenu", 
    "website": ""
  }, 
  {
    "country": "United States", 
    "id": "4e2083831fc7c0ef9857224a", 
    "latitude": 40.7204612641503, 
    "locality": "New York", 
    "longitude": -73.9874482154846, 
    "name": "Mason Dixon", 
    "phone": "(212) 260-4100", 
    "postal_code": "10002", 
    "region": "NY", 
    "street_address": "133 Essex St.", 
    "website": "http://www.masondixonnyc.com"
  }, 
  {
    "country": "United States", 
    "id": "4bfbe3b8d0382d7f1e30ca0a", 
    "latitude": 40.853385425, 
    "locality": "New York", 
    "longitude": -73.93534115, 
    "name": "Techcrunch Disrupt - Red Bull Lounge", 
    "phone": "(877) 673-9444", 
    "postal_code": "10014", 
    "region": "NY", 
    "street_address": "570 Washington", 
    "website": ""
  }, 
  {
    "country": "United States", 
    "id": "503e5563e4b06abc4a82c59a", 
    "latitude": 40.7359, 
    "locality": "New York", 
    "longitude": -73.98562, 
    "name": "Michael's Ice Cream Shoppe", 
    "phone": "(917) 472-1894", 
    "postal_code": "10003", 
    "region": "NY", 
    "street_address": "157 E. 18th St.", 
    "website": "http://www.icecreamweb.com"
  }, 
  {
    "country": "United States", 
    "id": "419d3780f964a5202c1e1fe3", 
    "latitude": 40.854935, 
    "locality": "New York", 
    "longitude": -73.93711, 
    "name": "Monkey Room", 
    "phone": null, 
    "postal_code": "10033", 
    "region": "NY", 
    "street_address": "589 Fort Washington Ave.", 
    "website": ""
  }, 
  {
    "country": "United States", 
    "id": "518d24b5498e3e2f48fbdedf", 
    "latitude": 40.741046, 
    "locality": "New York", 
    "longitude": -73.989893, 
    "name": "Rhong-Tiam Supreme Burger Truck", 
    "phone": null, 
    "postal_code": "", 
    "region": "NY", 
    "street_address": "", 
    "website": ""
  }, 
  {
    "country": "United States", 
    "id": "4c4313cbd7fad13a66fc09da", 
    "latitude": 40.7022698727141, 
    "locality": "Jamaica", 
    "longitude": -73.8200604657993, 
    "name": "Matty's Deli", 
    "phone": "(718) 739-0330", 
    "postal_code": "11418", 
    "region": "NY", 
    "street_address": "13207 Jamaica Ave.", 
    "website": ""
  }, 
  {
    "country": "United States", 
    "id": "4f32214819836c91c7b904ba", 
    "latitude": 40.7481, 
    "locality": "New York", 
    "longitude": -73.993599, 
    "name": "Catering", 
    "phone": "(212) 564-5370", 
    "postal_code": "", 
    "region": "NY", 
    "street_address": "224 W. 29th St.", 
    "website": "http://www.thecateringcompanynyc.com"
  }, 
  {
    "country": "United States", 
    "id": "517029ce498e802b4327ba99", 
    "latitude": 40.74105030648, 
    "locality": "New York", 
    "longitude": -73.9903173367045, 
    "name": "Bob & Jo Korean Fusion Cuisine", 
    "phone": null, 
    "postal_code": "", 
    "region": "NY", 
    "street_address": "", 
    "website": "http://bobjo.net"
  }, 
  {
    "country": "United States", 
    "id": "4fa2ce78e4b0e9eb09ec28f8", 
    "latitude": 40.7386093139648, 
    "locality": "New York", 
    "longitude": -73.9900360107422, 
    "name": "Marky Ramone's Cruisin' Kitchen", 
    "phone": null, 
    "postal_code": "10003", 
    "region": "NY", 
    "street_address": "", 
    "website": ""
  }, 
  {
    "country": "United States", 
    "id": "4edad8e229c2b91229083cb6", 
    "latitude": 40.759261, 
    "locality": "New York", 
    "longitude": -73.984085, 
    "name": "Bar @ The Palace Theater", 
    "phone": null, 
    "postal_code": "10036", 
    "region": "NY", 
    "street_address": "Broadway", 
    "website": ""
  }, 
  {
    "country": "United States", 
    "id": "51a996da498e3f06deb490a7", 
    "latitude": 40.7425694334239, 
    "locality": "New York", 
    "longitude": -73.9989484891448, 
    "name": "Seamless HQ", 
    "phone": null, 
    "postal_code": "10013", 
    "region": "NY", 
    "street_address": "163 W. 17th St.", 
    "website": ""
  }, 
  {
    "country": "United States", 
    "id": "4a24510af964a520107e1fe3", 
    "latitude": 40.7239602726544, 
    "locality": "New York", 
    "longitude": -74.0032007956266, 
    "name": "60 Thompson", 
    "phone": "(212) 431-0400", 
    "postal_code": "10012", 
    "region": "NY", 
    "street_address": "60 Thompson St.", 
    "website": "http://www.thompsonhotels.com/hotels/nyc/60-thompson"
  }, 
  {
    "country": "United States", 
    "id": "4bc5b8b95935c9b6233da6d2", 
    "latitude": 40.741800069809, 
    "locality": "New York", 
    "longitude": -73.997586, 
    "name": "Fruit Stand 18th & 7th", 
    "phone": null, 
    "postal_code": "10011", 
    "region": "NY", 
    "street_address": "", 
    "website": ""
  }, 
  {
    "country": "United States", 
    "id": "5000b51ae4b023056d0f750e", 
    "latitude": 40.7444933426112, 
    "locality": "New York", 
    "longitude": -73.9835214614868, 
    "name": "Grouper At Gansevoort Park", 
    "phone": null, 
    "postal_code": "10016", 
    "region": "NY", 
    "street_address": "", 
    "website": ""
  }, 
  {
    "country": "United States", 
    "id": "4f1a80f5e4b05c50e19d9b8d", 
    "latitude": 40.722917, 
    "locality": "New York", 
    "longitude": -74.001053, 
    "name": "Cicada - Soho", 
    "phone": null, 
    "postal_code": "10012", 
    "region": "NY", 
    "street_address": "Soho", 
    "website": ""
  }, 
  {
    "country": "United States", 
    "id": "3fd66200f964a520c7e41ee3", 
    "latitude": 40.7276490336344, 
    "locality": "New York", 
    "longitude": -73.9876842498779, 
    "name": "Via Della Pace", 
    "phone": "(212) 253-5803", 
    "postal_code": "10003", 
    "region": "NY", 
    "street_address": "48 E. 7th St.", 
    "website": "http://viadellapacenyc.com"
  }, 
  {
    "country": "United States", 
    "id": "4c4dbc2d0d90b71382c38f78", 
    "latitude": 40.7399106527657, 
    "locality": "New York", 
    "longitude": -73.9932441673077, 
    "name": "Sala One Nine", 
    "phone": "(212) 229-2300", 
    "postal_code": "10011", 
    "region": "NY", 
    "street_address": "35 W. 19th St.", 
    "website": "http://www.salaonenine.com"
  }, 
  {
    "country": "United States", 
    "id": "5051494ee4b0c099eb58ee1a", 
    "latitude": 40.7329499227693, 
    "locality": "New York", 
    "longitude": -73.9975547790527, 
    "name": "Grain Sushi", 
    "phone": "(212) 254-1888", 
    "postal_code": "10011", 
    "region": "NY", 
    "street_address": "23 W. 8th St.", 
    "website": ""
  }, 
  {
    "country": "United States", 
    "id": "50958dfc582feb7353e8659c", 
    "latitude": 40.7397542795199, 
    "locality": "New York", 
    "longitude": -74.0067708492279, 
    "name": "PaintNite NYC at Revel", 
    "phone": "(646) 389-7480", 
    "postal_code": "10014", 
    "region": "NY", 
    "street_address": "10 Little West 12th St.", 
    "website": ""
  }, 
  {
    "country": "United States", 
    "id": "4f441d2519836ed001925938", 
    "latitude": 40.85682, 
    "locality": "New York", 
    "longitude": -73.932043, 
    "name": "Don Ricardo Steak House", 
    "phone": "(212) 567-5766", 
    "postal_code": "", 
    "region": "NY", 
    "street_address": "4460 Broadway", 
    "website": ""
  }, 
  {
    "country": "United States", 
    "id": "4f3296e919836c91c7e6912b", 
    "latitude": 40.783731, 
    "locality": "New York", 
    "longitude": -73.977878, 
    "name": "La Grolla Risoranti", 
    "phone": "(212) 496-0890", 
    "postal_code": "", 
    "region": "NY", 
    "street_address": "413 Amsterdam Ave.", 
    "website": "http://lagrolla.us"
  }, 
  {
    "country": "United States", 
    "id": "3fd66200f964a52083e61ee3", 
    "latitude": 40.7170134612603, 
    "locality": "New York", 
    "longitude": -74.0081226825714, 
    "name": "The Odeon", 
    "phone": "(212) 233-0507", 
    "postal_code": "10013", 
    "region": "NY", 
    "street_address": "145 W. Broadway", 
    "website": ""
  }, 
  {
    "country": "United States", 
    "id": "4b071490f964a520cef622e3", 
    "latitude": 40.7274701619123, 
    "locality": "New York", 
    "longitude": -73.9826631546021, 
    "name": "La Lucha - Tacos & Boutique", 
    "phone": "(212) 260-0235", 
    "postal_code": "10009", 
    "region": "NY", 
    "street_address": "147 Ave. A", 
    "website": "http://www.laluchanyc.com"
  }, 
  {
    "country": "United States", 
    "id": "4b357135f964a520302d25e3", 
    "latitude": 40.8507679299275, 
    "locality": "New York", 
    "longitude": -73.9374488179153, 
    "name": "Domino's Pizza", 
    "phone": "(212) 781-3700", 
    "postal_code": "10033", 
    "region": "NY", 
    "street_address": "736 W. 181st St.", 
    "website": "http://www.dominos.com"
  }, 
  {
    "country": "United States", 
    "id": "4f32127519833175d60dbd35", 
    "latitude": 40.778, 
    "locality": "New York", 
    "longitude": -73.950104, 
    "name": "Anna Maria Pizzeria", 
    "phone": "(212) 722-7725", 
    "postal_code": "", 
    "region": "NY", 
    "street_address": "1681 1st Ave.", 
    "website": ""
  }, 
  {
    "country": "United States", 
    "id": "4e863b87f5b95fb337ce2c4f", 
    "latitude": 40.7427422268707, 
    "locality": "New York", 
    "longitude": -74.0078661730023, 
    "name": "Cooking Channel's Meatpacking Uncorked: NYC Wine & Food Festival", 
    "phone": null, 
    "postal_code": "10011", 
    "region": "NY", 
    "street_address": "Meatpacking District", 
    "website": ""
  }, 
  {
    "country": "United States", 
    "id": "4e4cdfc3bd413c4cc66cdcf7", 
    "latitude": 40.7616689126241, 
    "locality": "New York", 
    "longitude": -73.9601454280593, 
    "name": "Angels", 
    "phone": "(212) 980-3131", 
    "postal_code": "10065", 
    "region": "NY", 
    "street_address": "1135 1st Ave.", 
    "website": ""
  }, 
  {
    "country": "United States", 
    "id": "4fdf883be4b0b4dd2a215f82", 
    "latitude": 40.7203388960506, 
    "locality": "New York", 
    "longitude": -73.9979212646488, 
    "name": "Rawlicious", 
    "phone": "", 
    "postal_code": "10013", 
    "region": "NY", 
    "street_address": "249 Centre St.", 
    "website": ""
  }, 
  {
    "country": "United States", 
    "id": "4cf86b706cee236a950ce703", 
    "latitude": 40.7571912477128, 
    "locality": "New York", 
    "longitude": -73.9862828283949, 
    "name": "2 Brothers Pizza", 
    "phone": null, 
    "postal_code": "10065", 
    "region": "NY", 
    "street_address": "329-331 E. 65th St.", 
    "website": ""
  }, 
  {
    "country": "United States", 
    "id": "516aebfb498e28efe347e0e9", 
    "latitude": 40.719263, 
    "locality": "New York", 
    "longitude": -73.996745, 
    "name": "Red Mango", 
    "phone": null, 
    "postal_code": "", 
    "region": "NY", 
    "street_address": "203 Grand St.", 
    "website": ""
  }, 
  {
    "country": "United States", 
    "id": "4e8741b1b63493832df29d65", 
    "latitude": 40.7168831458104, 
    "locality": "New York", 
    "longitude": -73.9968136924018, 
    "name": "New XO Taste", 
    "phone": "(212) 343-8339", 
    "postal_code": "10013", 
    "region": "NY", 
    "street_address": "41 Elizabeth St.", 
    "website": ""
  }, 
  {
    "country": "United States", 
    "id": "4f32579b19836c91c7ce4f53", 
    "latitude": 40.751023, 
    "locality": "New York", 
    "longitude": -74.006123, 
    "name": "Bcs Sushi", 
    "phone": "(212) 337-0015", 
    "postal_code": "", 
    "region": "NY", 
    "street_address": "601 W. 26th St.", 
    "website": ""
  }, 
  {
    "country": "United States", 
    "id": "4a89cd2ff964a520100920e3", 
    "latitude": 40.728966558807, 
    "locality": "New York", 
    "longitude": -73.988389047438, 
    "name": "2 Bros. Pizza", 
    "phone": "(212) 777-0600", 
    "postal_code": "10003", 
    "region": "NY", 
    "street_address": "32 Saint Marks Pl.", 
    "website": ""
  }, 
  {
    "country": "United States", 
    "id": "4e41f867ae60f5540b3c2f8a", 
    "latitude": 40.7791267584953, 
    "locality": "New York", 
    "longitude": -73.954778614908, 
    "name": "Eastside Billiards & Bar", 
    "phone": "(212) 831-7665", 
    "postal_code": "10028", 
    "region": "NY", 
    "street_address": "163 E. 86th St.", 
    "website": "http://www.eastsidebilliards.com"
  }, 
  {
    "country": "United States", 
    "id": "5122d2abe4b085457c8ae795", 
    "latitude": 40.7292949458883, 
    "locality": "New York", 
    "longitude": -74.0051691052436, 
    "name": "Clarkson", 
    "phone": "(212) 675-2474", 
    "postal_code": "10014", 
    "region": "NY", 
    "street_address": "225 Varick St.", 
    "website": "http://clarksonrestaurant.com"
  }, 
  {
    "country": "United States", 
    "id": "4bf5b33494b2a593d620acee", 
    "latitude": 40.7425707323985, 
    "locality": "New York", 
    "longitude": -74.0054732445739, 
    "name": "The Cleaver Company", 
    "phone": "(212) 741-9174", 
    "postal_code": "10011", 
    "region": "NY", 
    "street_address": "75 Ninth Ave.", 
    "website": "http://www.cleaverco.com"
  }, 
  {
    "country": "United States", 
    "id": "4c49b8799f2ad13aa1d4ae53", 
    "latitude": 40.7298266228693, 
    "locality": "New York", 
    "longitude": -74.0007287264962, 
    "name": "Alibi", 
    "phone": "(212) 254-9996", 
    "postal_code": "10012", 
    "region": "NY", 
    "street_address": "116 Macdougal St.", 
    "website": ""
  }, 
  {
    "country": "United States", 
    "id": "3fd66200f964a52067e41ee3", 
    "latitude": 40.72932, 
    "locality": "New York", 
    "longitude": -73.987965, 
    "name": "Cloister Cafe", 
    "phone": "(212) 777-9128", 
    "postal_code": "10003", 
    "region": "NY", 
    "street_address": "238 E. 9th St.", 
    "website": ""
  }, 
  {
    "country": "United States", 
    "id": "4a070a2bf964a5201a731fe3", 
    "latitude": 40.7858003336251, 
    "locality": "New York", 
    "longitude": -73.9764401090523, 
    "name": "Soldier McGee Tavern", 
    "phone": "(212) 579-4299", 
    "postal_code": "10024", 
    "region": "NY", 
    "street_address": "480 Amsterdam Ave.", 
    "website": "http://smcgeetavernnyc.com"
  }, 
  {
    "country": "United States", 
    "id": "4b2c5f49f964a52065c624e3", 
    "latitude": 40.77720987972, 
    "locality": "New York", 
    "longitude": -73.978862096073, 
    "name": "Columbus 72", 
    "phone": "(212) 769-1492", 
    "postal_code": "10023", 
    "region": "NY", 
    "street_address": "246 Columbus Ave.", 
    "website": "http://www.columbus72.com"
  }, 
  {
    "country": "United States", 
    "id": "4a300de4f964a5200c991fe3", 
    "latitude": 40.7166181210411, 
    "locality": "New York", 
    "longitude": -73.9886645185195, 
    "name": "Kossar's Bialys", 
    "phone": "(212) 473-4810", 
    "postal_code": "10002", 
    "region": "NY", 
    "street_address": "367 Grand St.", 
    "website": "http://www.kossarsbialys.com"
  }, 
  {
    "country": "United States", 
    "id": "4bf99ea08d30d13af18a0218", 
    "latitude": 40.781407, 
    "locality": "New York", 
    "longitude": -73.96039, 
    "name": "Cafe Fledermaus", 
    "phone": "(212) 288-0665", 
    "postal_code": "10028", 
    "region": "NY", 
    "street_address": "1048 5th Ave.", 
    "website": ""
  }, 
  {
    "country": "United States", 
    "id": "5134ec2ae4b01ac3c88b7c59", 
    "latitude": 40.7609724878379, 
    "locality": "New York", 
    "longitude": -73.9902886420658, 
    "name": "La Pulperia", 
    "phone": null, 
    "postal_code": "10036", 
    "region": "NY", 
    "street_address": "371 West 46th St.", 
    "website": ""
  }, 
  {
    "country": "United States", 
    "id": "4bd9916b5f50b7130f19e0d1", 
    "latitude": 40.810079, 
    "locality": "New York", 
    "longitude": -73.94390343, 
    "name": "Lenox Deli & Grocery", 
    "phone": null, 
    "postal_code": "10027", 
    "region": "NY", 
    "street_address": "360 Lenox Ave.", 
    "website": ""
  }, 
  {
    "country": "United States", 
    "id": "51bcf439498e8e4e68fc424f", 
    "latitude": 40.808216, 
    "locality": "New York", 
    "longitude": -73.951262, 
    "name": "Fantasy Island", 
    "phone": null, 
    "postal_code": "10027", 
    "region": "NY", 
    "street_address": "252 West 123rd", 
    "website": ""
  }, 
  {
    "country": "United States", 
    "id": "4e4c4d3abd413c4cc6685828", 
    "latitude": 40.74463, 
    "locality": "New York", 
    "longitude": -73.998972, 
    "name": "Noodle Corner", 
    "phone": "(212) 989-1668", 
    "postal_code": "10011", 
    "region": "NY", 
    "street_address": "236 8th Ave.", 
    "website": ""
  }, 
  {
    "country": "United States", 
    "id": "4c9ba0c1971676b0da3b5ee2", 
    "latitude": 40.7464, 
    "locality": "New York", 
    "longitude": -74.000884, 
    "name": "Brats: Dogs & Wieners", 
    "phone": "(646) 350-2557", 
    "postal_code": "10011", 
    "region": "NY", 
    "street_address": "362 W. 23rd St.", 
    "website": ""
  }, 
  {
    "country": "United States", 
    "id": "50687ec8e4b0c7c0528af1d9", 
    "latitude": 40.711513, 
    "locality": "New York", 
    "longitude": -74.016295, 
    "name": "Winter's House Of Rock", 
    "phone": null, 
    "postal_code": "10280", 
    "region": "NY", 
    "street_address": "395 S. End Ave.", 
    "website": ""
  }, 
  {
    "country": "United States", 
    "id": "4f32ca4819836c91c7faefb8", 
    "latitude": 40.750788, 
    "locality": "New York", 
    "longitude": -74.005629, 
    "name": "Studio One West", 
    "phone": "(212) 989-5581", 
    "postal_code": "", 
    "region": "NY", 
    "street_address": "601 W. 26th St.", 
    "website": "http://www.studiogaia.com"
  }, 
  {
    "country": "United States", 
    "id": "51f99287498e4a2e045a08a5", 
    "latitude": 40.724313, 
    "locality": "New York", 
    "longitude": -73.990945, 
    "name": "Blue Ribbon Fried Chicken", 
    "phone": "(212) 228-0404", 
    "postal_code": "", 
    "region": "NY", 
    "street_address": "28 East 1st St.", 
    "website": ""
  }, 
  {
    "country": "United States", 
    "id": "4b7458e7f964a520c7d62de3", 
    "latitude": 40.7353260239952, 
    "locality": "New York", 
    "longitude": -73.9862196988571, 
    "name": "Corbet & Conley", 
    "phone": "(212) 982-3939", 
    "postal_code": "10003", 
    "region": "NY", 
    "street_address": "145 E. 17th St.", 
    "website": ""
  }, 
  {
    "country": "United States", 
    "id": "40c10d00f964a520db001fe3", 
    "latitude": 40.752742, 
    "locality": "New York", 
    "longitude": -74.004515, 
    "name": "Ruby Falls", 
    "phone": "(212) 643-6464", 
    "postal_code": "10001", 
    "region": "NY", 
    "street_address": "609 W. 29th St.", 
    "website": ""
  }, 
  {
    "country": "United States", 
    "id": "4fe50b08e4b08674c9dd2bd4", 
    "latitude": 40.7293610510676, 
    "locality": "New York", 
    "longitude": -73.987206812891, 
    "name": "Kingston Hall", 
    "phone": "(212) 673-2663", 
    "postal_code": "10003", 
    "region": "NY", 
    "street_address": "149 2nd Ave.", 
    "website": ""
  }, 
  {
    "country": "United States", 
    "id": "4f4503c719836ed001982267", 
    "latitude": 40.719465, 
    "locality": "New York", 
    "longitude": -74.042771, 
    "name": "Hana Sushi", 
    "phone": "(212) 619-0039", 
    "postal_code": "", 
    "region": "NY", 
    "street_address": "372 Greenwich St.", 
    "website": ""
  }, 
  {
    "country": "United States", 
    "id": "4c14fcac127f952116f12425", 
    "latitude": 40.7916420269814, 
    "locality": "New York", 
    "longitude": -73.9648693799973, 
    "name": "Petros' Hot Dog Cart", 
    "phone": null, 
    "postal_code": "10025", 
    "region": "NY", 
    "street_address": "360.5 Central Park West", 
    "website": ""
  }, 
  {
    "country": "United States", 
    "id": "4a72eeb8f964a52056db1fe3", 
    "latitude": 40.7522855534026, 
    "locality": "New York", 
    "longitude": -73.9858007477622, 
    "name": "Culture Espresso", 
    "phone": "", 
    "postal_code": "10018", 
    "region": "NY", 
    "street_address": "72 W. 38th St.", 
    "website": "http://cultureespresso.com"
  }, 
  {
    "country": "United States", 
    "id": "4f073e1ae4b0d6422997cd3e", 
    "latitude": 40.7513152657777, 
    "locality": "New York", 
    "longitude": -73.9922054345001, 
    "name": "IKON Lunch Room", 
    "phone": null, 
    "postal_code": "10119", 
    "region": "NY", 
    "street_address": "One Penn Plaza", 
    "website": ""
  }, 
  {
    "country": "United States", 
    "id": "5052068664a46f2c6ef0380b", 
    "latitude": 40.7290149472948, 
    "locality": "New York", 
    "longitude": -73.9780712127686, 
    "name": "Pouring Ribbons", 
    "phone": "(917) 656-6788", 
    "postal_code": "10009", 
    "region": "NY", 
    "street_address": "225 Ave. B, Fl 2", 
    "website": "http://www.pouringribbons.com"
  }, 
  {
    "country": "United States", 
    "id": "437d1980f964a520b42a1fe3", 
    "latitude": 40.7568269644644, 
    "locality": "New York", 
    "longitude": -73.9938008339553, 
    "name": "Aceluck", 
    "phone": "(212) 594-7083", 
    "postal_code": "10018", 
    "region": "NY", 
    "street_address": "530 9th Ave.", 
    "website": ""
  }, 
  {
    "country": "United States", 
    "id": "4a3eb434f964a52050a31fe3", 
    "latitude": 40.694807, 
    "locality": "Brooklyn", 
    "longitude": -73.99424176, 
    "name": "Andy's", 
    "phone": "(718) 237-8899", 
    "postal_code": "11201", 
    "region": "NY", 
    "street_address": "128 Montague St.", 
    "website": ""
  }, 
  {
    "country": "United States", 
    "id": "43db9775f964a520922e1fe3", 
    "latitude": 40.7301471513133, 
    "locality": "New York", 
    "longitude": -74.0047846265305, 
    "name": "Little Branch", 
    "phone": "(212) 929-4360", 
    "postal_code": "10014", 
    "region": "NY", 
    "street_address": "20 7th Ave. S.", 
    "website": ""
  }, 
  {
    "country": "United States", 
    "id": "4e9df6404fc679d8a6edd6f1", 
    "latitude": 40.7138582398788, 
    "locality": "New York", 
    "longitude": -74.0146887302399, 
    "name": "NYC Test Prod Location OP 7G", 
    "phone": null, 
    "postal_code": "10285", 
    "region": "NY", 
    "street_address": "200 Vesey St.", 
    "website": ""
  }, 
  {
    "country": "United States", 
    "id": "4d3dd5bd6e252c0f918fe23b", 
    "latitude": 40.7649762994084, 
    "locality": "New York", 
    "longitude": -73.9871838568083, 
    "name": "La Silhouette", 
    "phone": "(212) 581-2400", 
    "postal_code": "10019", 
    "region": "NY", 
    "street_address": "362 W. 53rd St.", 
    "website": "http://www.la-silhouettenyc.com"
  }, 
  {
    "country": "United States", 
    "id": "4f3229b919836c91c7bc5d4f", 
    "latitude": 40.736431, 
    "locality": "New York", 
    "longitude": -73.979794, 
    "name": "Broken Cup Cafe", 
    "phone": "(212) 473-5002", 
    "postal_code": "", 
    "region": "NY", 
    "street_address": "342 E. 22nd St.", 
    "website": ""
  }, 
  {
    "country": "United States", 
    "id": "4ee4e091823180a98bbce3b2", 
    "latitude": 40.7826156616211, 
    "locality": "New York", 
    "longitude": -73.9817657470703, 
    "name": "Red Window", 
    "phone": null, 
    "postal_code": "10023", 
    "region": "NY", 
    "street_address": "268 W. 77th St., New York, Ny 10023", 
    "website": ""
  }, 
  {
    "country": "United States", 
    "id": "4ccc32e997d0224bff415eb8", 
    "latitude": 40.7499385396842, 
    "locality": "New York", 
    "longitude": -73.9835567612722, 
    "name": "Ai Fiori", 
    "phone": "(212) 695-4005", 
    "postal_code": "10018", 
    "region": "NY", 
    "street_address": "400 5th Ave.", 
    "website": "http://www.aifiorinyc.com"
  }, 
  {
    "country": "United States", 
    "id": "5087db80e4b0d0ee36e43412", 
    "latitude": 40.763645, 
    "locality": "New York", 
    "longitude": -73.969321, 
    "name": "Starbucks", 
    "phone": null, 
    "postal_code": "10021", 
    "region": "NY", 
    "street_address": "58th St.", 
    "website": ""
  }, 
  {
    "country": "United States", 
    "id": "4f323c4519836c91c7c3876f", 
    "latitude": 40.746945, 
    "locality": "New York", 
    "longitude": -74.006082, 
    "name": "El Flamingo Club", 
    "phone": "(212) 243-2121", 
    "postal_code": "", 
    "region": "NY", 
    "street_address": "547 W. 21st St.", 
    "website": "http://thedonkeyshow.com"
  }, 
  {
    "country": "United States", 
    "id": "4e45352362e148603b60cf09", 
    "latitude": 40.7461930570269, 
    "locality": "New York", 
    "longitude": -73.9793671511341, 
    "name": "Dunkin Donuts", 
    "phone": "", 
    "postal_code": "10016", 
    "region": "NY", 
    "street_address": "140 E. 34th St.", 
    "website": "http://www.dunkindonuts.com"
  }, 
  {
    "country": "United States", 
    "id": "4c9cd088542b224b36f4e39f", 
    "latitude": 40.767835, 
    "locality": "New York", 
    "longitude": -73.964341, 
    "name": "The Hunter Coffee Bar", 
    "phone": "", 
    "postal_code": "10065", 
    "region": "NY", 
    "street_address": "695 Park Ave.", 
    "website": ""
  }, 
  {
    "country": "United States", 
    "id": "4427bd00f964a520b6311fe3", 
    "latitude": 40.7381137229069, 
    "locality": "New York", 
    "longitude": -74.0019670052254, 
    "name": "Benny's Burritos", 
    "phone": "(212) 727-0584", 
    "postal_code": "10011", 
    "region": "NY", 
    "street_address": "113 Greenwich Ave.", 
    "website": "http://blockheads.com"
  }, 
  {
    "country": "United States", 
    "id": "4a7856dcf964a5206ce51fe3", 
    "latitude": 40.714525, 
    "locality": "New York", 
    "longitude": -74.010127, 
    "name": "Bengal Curry & Kabab", 
    "phone": "(212) 571-1122", 
    "postal_code": "10007", 
    "region": "NY", 
    "street_address": "65 W. Broadway", 
    "website": "http://bengalcurrykebabnyc.com"
  }, 
  {
    "country": "United States", 
    "id": "4ada0a62f964a520a91d21e3", 
    "latitude": 40.7981367589715, 
    "locality": "New York", 
    "longitude": -73.9693518913068, 
    "name": "Broadway Restaurant", 
    "phone": "(212) 865-7074", 
    "postal_code": "10025", 
    "region": "NY", 
    "street_address": "2664 Broadway", 
    "website": ""
  }, 
  {
    "country": "United States", 
    "id": "4ac4e1e5f964a520649f20e3", 
    "latitude": 40.7561484110524, 
    "locality": "New York", 
    "longitude": -73.9716993542665, 
    "name": "New York Luncheonette", 
    "phone": "(212) 838-0165", 
    "postal_code": "10022", 
    "region": "NY", 
    "street_address": "135 E. 50th St.", 
    "website": ""
  }, 
  {
    "country": "United States", 
    "id": "4da216b19aa4721e82ed081a", 
    "latitude": 40.70769, 
    "locality": "New York", 
    "longitude": -74.005438, 
    "name": "Mister Softee South St Seaport", 
    "phone": null, 
    "postal_code": "", 
    "region": "NY", 
    "street_address": "", 
    "website": ""
  }, 
  {
    "country": "United States", 
    "id": "4f32afc919836c91c7efddf0", 
    "latitude": 40.709252, 
    "locality": "New York", 
    "longitude": -74.011902, 
    "name": "Original Soupman", 
    "phone": "(212) 566-7400", 
    "postal_code": "", 
    "region": "NY", 
    "street_address": "97 Trinity Pl.", 
    "website": "http://www.originalsoupman.com"
  }, 
  {
    "country": "United States", 
    "id": "4f32483c19836c91c7c85066", 
    "latitude": 40.792118, 
    "locality": "New York", 
    "longitude": -73.941191, 
    "name": "Taqueria La Fogata", 
    "phone": "(212) 987-8321", 
    "postal_code": "", 
    "region": "NY", 
    "street_address": "2104 2nd Ave.", 
    "website": ""
  }, 
  {
    "country": "United States", 
    "id": "5219674a498e700827055746", 
    "latitude": 40.7303782194698, 
    "locality": "New York", 
    "longitude": -73.989335977624, 
    "name": "Axel's Bed", 
    "phone": null, 
    "postal_code": "10003", 
    "region": "NY", 
    "street_address": "33 3rd Ave.", 
    "website": ""
  }, 
  {
    "country": "United States", 
    "id": "4b9daa34f964a52005b936e3", 
    "latitude": 40.760595, 
    "locality": "New York", 
    "longitude": -73.962361, 
    "name": "Sapphire Gentlemen's Club", 
    "phone": "(212) 421-3600", 
    "postal_code": "10022", 
    "region": "NY", 
    "street_address": "333 E. 60th St.", 
    "website": "http://www.nysapphire.com"
  }, 
  {
    "country": "United States", 
    "id": "416c7000f964a520961d1fe3", 
    "latitude": 40.742691, 
    "locality": "New York", 
    "longitude": -73.982626, 
    "name": "Chinese Mirch", 
    "phone": "(212) 532-3663", 
    "postal_code": "10016", 
    "region": "NY", 
    "street_address": "120 Lexington Ave.", 
    "website": "http://www.chinesemirch.com"
  }, 
  {
    "country": "United States", 
    "id": "4cb0d96a562d224b35281a88", 
    "latitude": 40.7352104243413, 
    "locality": "New York", 
    "longitude": -73.9796024604253, 
    "name": "Bangkok 2", 
    "phone": "(212) 473-4480", 
    "postal_code": "10010", 
    "region": "NY", 
    "street_address": "349 1st Ave.", 
    "website": ""
  }, 
  {
    "country": "United States", 
    "id": "42489a80f964a5208c201fe3", 
    "latitude": 40.7903049485928, 
    "locality": "New York", 
    "longitude": -73.9731170014109, 
    "name": "Saigon Grill", 
    "phone": "(212) 875-9072", 
    "postal_code": "10024", 
    "region": "NY", 
    "street_address": "620 Amsterdam Ave.", 
    "website": "http://www.saigongrillnyc.com"
  }, 
  {
    "country": "United States", 
    "id": "4c8afaad6418a143a961e5ce", 
    "latitude": 40.634856, 
    "locality": "Brooklyn", 
    "longitude": -73.965126, 
    "name": "Ox Cart Tavern", 
    "phone": null, 
    "postal_code": "11226", 
    "region": "NY", 
    "street_address": "1301 Newkirk Ave.", 
    "website": ""
  }, 
  {
    "country": "United States", 
    "id": "5143ce4ce4b013809155a5c0", 
    "latitude": 40.7366819311925, 
    "locality": "New York", 
    "longitude": -74.0043083309339, 
    "name": "Hog Mansion", 
    "phone": null, 
    "postal_code": "", 
    "region": "NY", 
    "street_address": "", 
    "website": ""
  }, 
  {
    "country": "United States", 
    "id": "40fb0f00f964a520e50a1fe3", 
    "latitude": 40.772014, 
    "locality": "New York", 
    "longitude": -73.958949, 
    "name": "La Tour", 
    "phone": "(212) 472-7578", 
    "postal_code": "10021", 
    "region": "NY", 
    "street_address": "1319 3rd Ave.", 
    "website": "http://bistrolatour.com"
  }, 
  {
    "country": "United States", 
    "id": "4d4ef7a4db1b3704e67d131f", 
    "latitude": 40.8160543441772, 
    "locality": "New York", 
    "longitude": -73.954017162323, 
    "name": "The FOODAH Place", 
    "phone": null, 
    "postal_code": "10027", 
    "region": "NY", 
    "street_address": "1425 Amsterdam Ave.", 
    "website": ""
  }, 
  {
    "country": "United States", 
    "id": "4d2e374ada7cb60c9d616dd4", 
    "latitude": 40.7149261385775, 
    "locality": "New York", 
    "longitude": -74.0114182105878, 
    "name": "Yorganic", 
    "phone": "(212) 732-8888", 
    "postal_code": "10007", 
    "region": "NY", 
    "street_address": "275 Greenwich St.", 
    "website": ""
  }, 
  {
    "country": "United States", 
    "id": "51660f03e4b0532de9035610", 
    "latitude": 40.766998, 
    "locality": "New York", 
    "longitude": -73.982079, 
    "name": "Jae's Kitchen NYC Location", 
    "phone": null, 
    "postal_code": "", 
    "region": "NY", 
    "street_address": "", 
    "website": ""
  }, 
  {
    "country": "United States", 
    "id": "4f32904019836c91c7e40b3d", 
    "latitude": 40.741984, 
    "locality": "New York", 
    "longitude": -73.9931, 
    "name": "Red Mango", 
    "phone": "(212) 929-2313", 
    "postal_code": "", 
    "region": "NY", 
    "street_address": "688 Ave. Of The Americas", 
    "website": ""
  }, 
  {
    "country": "United States", 
    "id": "4ac019aef964a520c49320e3", 
    "latitude": 40.8026630624637, 
    "locality": "New York", 
    "longitude": -73.9676931532855, 
    "name": "Indian Cafe", 
    "phone": "(212) 749-9200", 
    "postal_code": "10025", 
    "region": "NY", 
    "street_address": "2791 Broadway", 
    "website": "http://rhgnyc.com/ic/index.html"
  }, 
  {
    "country": "United States", 
    "id": "4b142286f964a520cb9d23e3", 
    "latitude": 40.757133434277, 
    "locality": "New York", 
    "longitude": -73.9218340264566, 
    "name": "Cevabdzinica Sarajevo", 
    "phone": "(718) 752-9528", 
    "postal_code": "11101", 
    "region": "NY", 
    "street_address": "37-18 34th Ave.", 
    "website": ""
  }, 
  {
    "country": "United States", 
    "id": "4f32227219836c91c7b97f62", 
    "latitude": 40.78503, 
    "locality": "New York", 
    "longitude": -73.95154, 
    "name": "A and Y Food Center", 
    "phone": "(212) 876-9050", 
    "postal_code": "", 
    "region": "NY", 
    "street_address": "1470 Lexington Ave.", 
    "website": ""
  }, 
  {
    "country": "United States", 
    "id": "4bec819349430f471cd407d2", 
    "latitude": 40.8249570345831, 
    "locality": "New York", 
    "longitude": -73.9512383937836, 
    "name": "La Posada", 
    "phone": "(212) 281-2164", 
    "postal_code": "10031", 
    "region": "NY", 
    "street_address": "3496 Broadway", 
    "website": ""
  }
]