[
  {
    "country": "United States", 
    "id": "f601985622c73ac016c5", 
    "latitude": 40.803799, 
    "locality": "New York", 
    "longitude": -73.947693, 
    "name": "The Den Harlem", 
    "phone": "", 
    "postal_code": "10026", 
    "region": "NY", 
    "street_address": "195 Lenox Ave.", 
    "website": ""
  }, 
  {
    "country": "United States", 
    "id": "3e708c5f2e521bf254fa", 
    "latitude": 40.7138582398788, 
    "locality": "New York", 
    "longitude": -74.0146887302399, 
    "name": "NYC Test Prod Location OP 7G", 
    "phone": "", 
    "postal_code": "10285", 
    "region": "NY", 
    "street_address": "200 Vesey St.", 
    "website": ""
  }, 
  {
    "country": "United States", 
    "id": "10d03d9b59821f4e838e", 
    "latitude": 40.7800483109791, 
    "locality": "New York", 
    "longitude": -73.9530795713175, 
    "name": "B&B Marketplace", 
    "phone": "", 
    "postal_code": "10128", 
    "region": "NY", 
    "street_address": "1566 3rd Ave.", 
    "website": ""
  }, 
  {
    "country": "United States", 
    "id": "44fcd29b4f40b4e1a7ed", 
    "latitude": 40.84057, 
    "locality": "New York", 
    "longitude": -73.93667, 
    "name": "Fresh Fruit Smoothie Cart", 
    "phone": "", 
    "postal_code": "", 
    "region": "NY", 
    "street_address": "168th St.", 
    "website": ""
  }, 
  {
    "country": "United States", 
    "id": "568e54eee78f20094943", 
    "latitude": 40.724557, 
    "locality": "New York", 
    "longitude": -73.980306, 
    "name": "Homeboy's Lil Hideaway", 
    "phone": "", 
    "postal_code": "10009", 
    "region": "NY", 
    "street_address": "", 
    "website": ""
  }, 
  {
    "country": "United States", 
    "id": "838516df1cfb465873d9", 
    "latitude": 40.731362, 
    "locality": "New York", 
    "longitude": -74.000443, 
    "name": "Vegetarian Paradise", 
    "phone": "2122607130", 
    "postal_code": "10012", 
    "region": "NY", 
    "street_address": "144 West 4th St.", 
    "website": "http://www.vp2-nyc.com/"
  }, 
  {
    "country": "United States", 
    "id": "034519dd541a38d0f472", 
    "latitude": 40.693738, 
    "locality": "New York", 
    "longitude": -73.988538, 
    "name": "The Archives Restaurant & Bar", 
    "phone": "7182226543", 
    "postal_code": "11201", 
    "region": "NY", 
    "street_address": "333 Adams St.", 
    "website": "http://www.marriottmodules.com/new_york_marriott_at_the_brooklyn_bridge/the_archives_restaurant_bar"
  }, 
  {
    "country": "United States", 
    "id": "f84074b6ad0faedd5da5", 
    "latitude": 40.704149, 
    "locality": "New York", 
    "longitude": -74.011853, 
    "name": "Giuliano Gourmet Pizza & Deli", 
    "phone": "2123440220", 
    "postal_code": "10004", 
    "region": "NY", 
    "street_address": "88 Broad St.", 
    "website": "http://giulianosnyc.com"
  }, 
  {
    "country": "United States", 
    "id": "9ce9b73a0dbfcc26ba31", 
    "latitude": 40.7520927627886, 
    "locality": "New York", 
    "longitude": -73.993909871563, 
    "name": "Studiofeast Doppelganger Dinner", 
    "phone": "", 
    "postal_code": "", 
    "region": "NY", 
    "street_address": "Undisclosed", 
    "website": ""
  }, 
  {
    "country": "United States", 
    "id": "a2b0df9ff3ffc008bd52", 
    "latitude": 40.807313, 
    "locality": "New York", 
    "longitude": -73.944144, 
    "name": "Pee Dee Steak II", 
    "phone": "2129961081", 
    "postal_code": "10027", 
    "region": "NY", 
    "street_address": "50 W.125st", 
    "website": ""
  }, 
  {
    "country": "United States", 
    "id": "7c97c3670f412197bc98", 
    "latitude": 40.8038514181672, 
    "locality": "New York", 
    "longitude": -73.9558003298713, 
    "name": "Harlem lounge", 
    "phone": "", 
    "postal_code": "", 
    "region": "NY", 
    "street_address": "2131 Harlem Lounge", 
    "website": ""
  }, 
  {
    "country": "United States", 
    "id": "348d0319908ca19375ec", 
    "latitude": 40.808216, 
    "locality": "New York", 
    "longitude": -73.951262, 
    "name": "Fantasy Island", 
    "phone": "", 
    "postal_code": "10027", 
    "region": "NY", 
    "street_address": "252 West 123rd", 
    "website": ""
  }, 
  {
    "country": "United States", 
    "id": "f98acf105a0c1b1bd0d2", 
    "latitude": 40.7174469862536, 
    "locality": "New York", 
    "longitude": -73.9941451630314, 
    "name": "Jin Mei Dumpling", 
    "phone": "2126088962", 
    "postal_code": "10002", 
    "region": "NY", 
    "street_address": "25b", 
    "website": ""
  }, 
  {
    "country": "United States", 
    "id": "399b1cb2700a7eb0fd7d", 
    "latitude": 40.7456303580593, 
    "locality": "New York", 
    "longitude": -73.9932556449869, 
    "name": "TasteBuds Kitchen", 
    "phone": "2122422248", 
    "postal_code": "10001", 
    "region": "NY", 
    "street_address": "109 West 27th St.", 
    "website": ""
  }, 
  {
    "country": "United States", 
    "id": "72bda9b9dd077eafa2d0", 
    "latitude": 40.748804, 
    "locality": "New York", 
    "longitude": -73.869069, 
    "name": "Rincon Criollo Restaurant", 
    "phone": "7186398158", 
    "postal_code": "11372", 
    "region": "NY", 
    "street_address": "40-09 Junction Blvd.", 
    "website": "http://www.rincon-criollo.com/"
  }, 
  {
    "country": "United States", 
    "id": "8a50e8bd50f7787808cd", 
    "latitude": 40.762817, 
    "locality": "New York", 
    "longitude": -73.967402, 
    "name": "Green Cafe", 
    "phone": "2127542525", 
    "postal_code": "10022", 
    "region": "NY", 
    "street_address": "145 East 60th St.", 
    "website": ""
  }, 
  {
    "country": "United States", 
    "id": "d1582489504318754af1", 
    "latitude": 40.736532, 
    "locality": "New York", 
    "longitude": -74.00636, 
    "name": "Paris Commune", 
    "phone": "2129290509", 
    "postal_code": "10014", 
    "region": "NY", 
    "street_address": "99 Bank St.", 
    "website": "http://pariscommune.net"
  }, 
  {
    "country": "United States", 
    "id": "efb40bbd8b19d6ac6896", 
    "latitude": 40.78503, 
    "locality": "New York", 
    "longitude": -73.95154, 
    "name": "A and Y Food Center", 
    "phone": "2128769050", 
    "postal_code": "", 
    "region": "NY", 
    "street_address": "1470 Lexington Ave.", 
    "website": ""
  }, 
  {
    "country": "United States", 
    "id": "f3333a3cf93854ab5723", 
    "latitude": 40.762588, 
    "locality": "New York", 
    "longitude": -73.976294, 
    "name": "Maachiato 52nd Between 5th And 6th", 
    "phone": "", 
    "postal_code": "", 
    "region": "NY", 
    "street_address": "", 
    "website": ""
  }, 
  {
    "country": "United States", 
    "id": "5b2c4e02dbbb2d847fbd", 
    "latitude": 40.7427422268707, 
    "locality": "New York", 
    "longitude": -74.0078661730023, 
    "name": "Cooking Channel's Meatpacking Uncorked: NYC Wine & Food Festival", 
    "phone": "", 
    "postal_code": "10011", 
    "region": "NY", 
    "street_address": "Meatpacking District", 
    "website": ""
  }, 
  {
    "country": "United States", 
    "id": "598f544f886c9d735043", 
    "latitude": 40.7678975833333, 
    "locality": "New York", 
    "longitude": -73.9847956333333, 
    "name": "Pape's Cafe", 
    "phone": "", 
    "postal_code": "10019", 
    "region": "NY", 
    "street_address": "425 W. 57th St.", 
    "website": ""
  }, 
  {
    "country": "United States", 
    "id": "af210618cdd73a70559c", 
    "latitude": 40.729348, 
    "locality": "New York", 
    "longitude": -73.987836, 
    "name": "Cloister Cafe", 
    "phone": "2127779128", 
    "postal_code": "10003", 
    "region": "NY", 
    "street_address": "238 East 9th St.", 
    "website": "http://www.cloistercafe.com/"
  }, 
  {
    "country": "United States", 
    "id": "355d5e9271ed477e50c4", 
    "latitude": 40.85682, 
    "locality": "New York", 
    "longitude": -73.932043, 
    "name": "Don Ricardo Steak House", 
    "phone": "2125675766", 
    "postal_code": "", 
    "region": "NY", 
    "street_address": "4460 Broadway", 
    "website": ""
  }, 
  {
    "country": "United States", 
    "id": "aa9662685c21936729c6", 
    "latitude": 40.727544, 
    "locality": "New York", 
    "longitude": -73.982819, 
    "name": "La Lucha", 
    "phone": "2122600235", 
    "postal_code": "10009", 
    "region": "NY", 
    "street_address": "147 Ave. A", 
    "website": "http://www.laluchanyc.com/"
  }, 
  {
    "country": "United States", 
    "id": "c9bbb187b5d56e2fc0fd", 
    "latitude": 40.762931, 
    "locality": "New York", 
    "longitude": -73.969957, 
    "name": "Caviartera New York", 
    "phone": "2127597410", 
    "postal_code": "", 
    "region": "NY", 
    "street_address": "502 Park Ave.", 
    "website": ""
  }, 
  {
    "country": "United States", 
    "id": "70e2d2b2d7f1786eae7c", 
    "latitude": 40.820841, 
    "locality": "New York", 
    "longitude": -73.943574, 
    "name": "2657 Food Center Inc", 
    "phone": "2128622657", 
    "postal_code": "10030", 
    "region": "NY", 
    "street_address": "2657 Frederick Douglass Blvd.", 
    "website": ""
  }, 
  {
    "country": "United States", 
    "id": "52b4b47456667316544f", 
    "latitude": 40.734512, 
    "locality": "New York", 
    "longitude": -74.002998, 
    "name": "Fedora", 
    "phone": "6464499336", 
    "postal_code": "10014", 
    "region": "NY", 
    "street_address": "239 West 4th St.", 
    "website": "http://www.fedoranyc.com/"
  }, 
  {
    "country": "United States", 
    "id": "4a0a1602aef8651305cf", 
    "latitude": 40.72574, 
    "locality": "New York", 
    "longitude": -74.007746, 
    "name": "Ellen's Deli & Grocery", 
    "phone": "2126757792", 
    "postal_code": "10013", 
    "region": "NY", 
    "street_address": "289 Hudson St.", 
    "website": ""
  }, 
  {
    "country": "United States", 
    "id": "59111eeb60369e419e83", 
    "latitude": 40.763, 
    "locality": "New York", 
    "longitude": -73.986396, 
    "name": "Mira's Lair La La", 
    "phone": "", 
    "postal_code": "10019", 
    "region": "NY", 
    "street_address": "306 West 51 St.", 
    "website": ""
  }, 
  {
    "country": "United States", 
    "id": "79d1cc588719dd1c6b8e", 
    "latitude": 40.7560580125, 
    "locality": "New York", 
    "longitude": -73.993135525, 
    "name": "Randy's Room.  Hiii Boys.  :-)", 
    "phone": "", 
    "postal_code": "10018", 
    "region": "NY", 
    "street_address": "339 W. 39th St., Rm 1404", 
    "website": ""
  }, 
  {
    "country": "United States", 
    "id": "d1bd575eab521bb8f46c", 
    "latitude": 40.7312873427197, 
    "locality": "New York", 
    "longitude": -73.9888536930084, 
    "name": "SU basketball with Big Apple Orange!", 
    "phone": "", 
    "postal_code": "10003", 
    "region": "NY", 
    "street_address": "Village Pourhouse, 64 Third Ave.", 
    "website": ""
  }, 
  {
    "country": "United States", 
    "id": "26dd3eb251402386b67d", 
    "latitude": 40.7933994055602, 
    "locality": "New York", 
    "longitude": -73.9665337500651, 
    "name": "Anelly Haze hookah lounge", 
    "phone": "", 
    "postal_code": "10025", 
    "region": "NY", 
    "street_address": "", 
    "website": ""
  }, 
  {
    "country": "United States", 
    "id": "e9d1e06cb7992aefcfb4", 
    "latitude": 40.7168, 
    "locality": "New York", 
    "longitude": -74.0074, 
    "name": "Megu New York", 
    "phone": "2129647777", 
    "postal_code": "10013", 
    "region": "NY", 
    "street_address": "62 Thomas St.", 
    "website": "http://www.megurestaurants.com"
  }, 
  {
    "country": "United States", 
    "id": "04221603e3ffbb7d9dde", 
    "latitude": 40.7609974144851, 
    "locality": "New York", 
    "longitude": -73.9907477557704, 
    "name": "Yum Yum 3", 
    "phone": "2129560639", 
    "postal_code": "10036", 
    "region": "NY", 
    "street_address": "658 9th Ave.", 
    "website": "http://www.yumyum3.com"
  }, 
  {
    "country": "United States", 
    "id": "3c3e131caa1d28dd3c5e", 
    "latitude": 40.747857019042, 
    "locality": "New York", 
    "longitude": -73.9766237679045, 
    "name": "Dunkin Donuts", 
    "phone": "", 
    "postal_code": "10016", 
    "region": "NY", 
    "street_address": "567 3rd Ave.", 
    "website": "http://www.dunkindonuts.com"
  }, 
  {
    "country": "United States", 
    "id": "af637e24f39bf8d3c1bf", 
    "latitude": 40.7166181210411, 
    "locality": "New York", 
    "longitude": -73.9886645185195, 
    "name": "Kossar's Bialys", 
    "phone": "2124734810", 
    "postal_code": "10002", 
    "region": "NY", 
    "street_address": "367 Grand St.", 
    "website": "http://www.kossarsbialys.com"
  }, 
  {
    "country": "United States", 
    "id": "c4bb3162177759f61bbf", 
    "latitude": 40.749735, 
    "locality": "New York", 
    "longitude": -73.978164, 
    "name": "Audry Lounge and Cafe", 
    "phone": "2126861600", 
    "postal_code": "10016", 
    "region": "NY", 
    "street_address": "120 East 39th St.", 
    "website": "http://www.stgilesnewyork.com/default.aspx?pg=home"
  }, 
  {
    "country": "United States", 
    "id": "4667ccce77c94560bb8a", 
    "latitude": 40.8809855653565, 
    "locality": "New York", 
    "longitude": -73.90857769115, 
    "name": "Golden Gate Express", 
    "phone": "", 
    "postal_code": "10463", 
    "region": "NY", 
    "street_address": "300 W. 231st St.", 
    "website": ""
  }, 
  {
    "country": "United States", 
    "id": "6600d262585f0daa3145", 
    "latitude": 40.7625770568848, 
    "locality": "New York", 
    "longitude": -73.9867782592773, 
    "name": "Hot Dog Stand", 
    "phone": "", 
    "postal_code": "10019", 
    "region": "NY", 
    "street_address": "50th St.", 
    "website": ""
  }, 
  {
    "country": "United States", 
    "id": "9585f3feefaf238c7b88", 
    "latitude": 40.743072, 
    "locality": "New York", 
    "longitude": -73.993109, 
    "name": "Dunkin Donuts", 
    "phone": "", 
    "postal_code": "10011", 
    "region": "NY", 
    "street_address": "101 W. 23rd St.", 
    "website": "http://www.dunkindonuts.com"
  }, 
  {
    "country": "United States", 
    "id": "140b5e97f735824ec543", 
    "latitude": 40.738387, 
    "locality": "New York", 
    "longitude": -73.989275, 
    "name": "Craft", 
    "phone": "2127800880", 
    "postal_code": "10003", 
    "region": "NY", 
    "street_address": "43 E. 19th St.", 
    "website": "http://www.craftrestaurant.com"
  }, 
  {
    "country": "United States", 
    "id": "3eb4dbc007837b80a24d", 
    "latitude": 40.7617020606995, 
    "locality": "New York", 
    "longitude": -73.9748471975327, 
    "name": "Caught In A Began Cab", 
    "phone": "", 
    "postal_code": "10022", 
    "region": "NY", 
    "street_address": "", 
    "website": ""
  }, 
  {
    "country": "United States", 
    "id": "6c574def36217f2abf51", 
    "latitude": 40.72790552, 
    "locality": "New York", 
    "longitude": -74.00763247, 
    "name": "Russian Breakfast Can", 
    "phone": "", 
    "postal_code": "10014", 
    "region": "NY", 
    "street_address": "100-126 King St.", 
    "website": ""
  }, 
  {
    "country": "United States", 
    "id": "c76e6541c3b3729bba43", 
    "latitude": 40.837476, 
    "locality": "New York", 
    "longitude": -73.938883, 
    "name": "Merengue Restaurante", 
    "phone": "2127404155", 
    "postal_code": "10032", 
    "region": "NY", 
    "street_address": "2102 Amsterdam Ave.", 
    "website": ""
  }, 
  {
    "country": "United States", 
    "id": "96ff56fce971c387a3f6", 
    "latitude": 40.7630195617676, 
    "locality": "New York", 
    "longitude": -73.9700546264648, 
    "name": "Le Bilboquet (new location)", 
    "phone": "", 
    "postal_code": "10022", 
    "region": "NY", 
    "street_address": "20 E. 60th St.", 
    "website": ""
  }, 
  {
    "country": "United States", 
    "id": "678ad1642559f56f9428", 
    "latitude": 40.724313, 
    "locality": "New York", 
    "longitude": -73.990945, 
    "name": "Blue Ribbon Fried Chicken", 
    "phone": "2122280404", 
    "postal_code": "10003", 
    "region": "NY", 
    "street_address": "28 East 1st St.", 
    "website": ""
  }, 
  {
    "country": "United States", 
    "id": "63f7d6f5e29af9eaa434", 
    "latitude": 40.745334, 
    "locality": "New York", 
    "longitude": -73.992539, 
    "name": "Black Door", 
    "phone": "2126450215", 
    "postal_code": "10001", 
    "region": "NY", 
    "street_address": "127 West 26th St. #1", 
    "website": "http://www.blackdoorvt.com/"
  }, 
  {
    "country": "United States", 
    "id": "547ce4ba409d696225f1", 
    "latitude": 40.791206, 
    "locality": "New York", 
    "longitude": -73.972647, 
    "name": "Mana", 
    "phone": "2127871110", 
    "postal_code": "10025", 
    "region": "NY", 
    "street_address": "646 Amsterdam Ave.", 
    "website": "http://www.manaorganic.com/"
  }, 
  {
    "country": "United States", 
    "id": "6062a8768db93506a804", 
    "latitude": 40.7650895000221, 
    "locality": "New York", 
    "longitude": -73.9659540458391, 
    "name": "A & A Discount One", 
    "phone": "", 
    "postal_code": "10065", 
    "region": "NY", 
    "street_address": "840 Lexington Blvd.", 
    "website": ""
  }, 
  {
    "country": "United States", 
    "id": "7ba14f958b9150d4ff01", 
    "latitude": 40.751957, 
    "locality": "New York", 
    "longitude": -73.979722, 
    "name": "Starbucks", 
    "phone": "2129229078", 
    "postal_code": "10017", 
    "region": "NY", 
    "street_address": "295 Madison Ave.", 
    "website": "http://www.starbucks.com/"
  }, 
  {
    "country": "United States", 
    "id": "ee930a331d3d802c9960", 
    "latitude": 40.76942, 
    "locality": "New York", 
    "longitude": -73.988532, 
    "name": "Moshiko Falel Grill", 
    "phone": "2123333636", 
    "postal_code": "10019", 
    "region": "NY", 
    "street_address": "877 10th Ave.", 
    "website": ""
  }, 
  {
    "country": "United States", 
    "id": "afd17762b27a5f142a11", 
    "latitude": 40.719549, 
    "locality": "New York", 
    "longitude": -73.97766, 
    "name": "Puerto Rican Family Restaurant", 
    "phone": "2122283725", 
    "postal_code": "", 
    "region": "NY", 
    "street_address": "442 E. Houston St.", 
    "website": ""
  }, 
  {
    "country": "United States", 
    "id": "72926571695a5819e22e", 
    "latitude": 40.751023, 
    "locality": "New York", 
    "longitude": -74.006123, 
    "name": "Bcs Sushi", 
    "phone": "2123370015", 
    "postal_code": "10001", 
    "region": "NY", 
    "street_address": "601 W. 26th St.", 
    "website": ""
  }, 
  {
    "country": "United States", 
    "id": "64b1baa18a03c3812084", 
    "latitude": 40.720214, 
    "locality": "New York", 
    "longitude": -73.997204, 
    "name": "The Manor", 
    "phone": "", 
    "postal_code": "10013", 
    "region": "NY", 
    "street_address": "175 Mulberry St., Apt 6", 
    "website": ""
  }, 
  {
    "country": "United States", 
    "id": "45e5c9e6bc0853d1e94e", 
    "latitude": 40.725318, 
    "locality": "New York", 
    "longitude": -73.9835, 
    "name": "Easternbloc", 
    "phone": "2127772555", 
    "postal_code": "10009", 
    "region": "NY", 
    "street_address": "505 East 6th St. #1", 
    "website": "http://easternblocnyc.com/"
  }, 
  {
    "country": "United States", 
    "id": "a8bb83cad825ab04e827", 
    "latitude": 40.635834, 
    "locality": "New York", 
    "longitude": -73.974363, 
    "name": "No 1 Chinese Restaurant", 
    "phone": "7188540825", 
    "postal_code": "11218", 
    "region": "NY", 
    "street_address": "420 Ditmas Ave.", 
    "website": "http://www.ditmasno1.com/"
  }, 
  {
    "country": "United States", 
    "id": "e21a354bc8b899f4a6ec", 
    "latitude": 40.815566, 
    "locality": "New York", 
    "longitude": -73.943211, 
    "name": "Cafe 22", 
    "phone": "2122818500", 
    "postal_code": "10030", 
    "region": "NY", 
    "street_address": "2309 Adam Clayton Powell Junior Blvd.", 
    "website": ""
  }, 
  {
    "country": "United States", 
    "id": "5112367089d5562ce0a4", 
    "latitude": 40.753668932563, 
    "locality": "New York", 
    "longitude": -73.9824376277786, 
    "name": "Pretzelmaker", 
    "phone": "2126951186", 
    "postal_code": "10018", 
    "region": "NY", 
    "street_address": "625 8th Ave., S. Wing,2nd Floor", 
    "website": ""
  }, 
  {
    "country": "United States", 
    "id": "c0220c5ace200cde7fad", 
    "latitude": 40.751585, 
    "locality": "New York", 
    "longitude": -73.97359, 
    "name": "Starbucks", 
    "phone": "6468651250", 
    "postal_code": "10017", 
    "region": "NY", 
    "street_address": "685 Third Ave.", 
    "website": "http://www.starbucks.com/"
  }, 
  {
    "country": "United States", 
    "id": "9a25c79cf0e909fa74ea", 
    "latitude": 40.716739, 
    "locality": "New York", 
    "longitude": -73.988851, 
    "name": "Shalom Chia Pizza", 
    "phone": "2125984178", 
    "postal_code": "10002", 
    "region": "NY", 
    "street_address": "359 Grand St.", 
    "website": ""
  }, 
  {
    "country": "United States", 
    "id": "2badc0254a5e290f3b59", 
    "latitude": 40.749841, 
    "locality": "New York", 
    "longitude": -73.975442, 
    "name": "Victoria's Saloon", 
    "phone": "", 
    "postal_code": "10017", 
    "region": "NY", 
    "street_address": "630 3rd Ave.", 
    "website": ""
  }, 
  {
    "country": "United States", 
    "id": "728e5605081baccfcd8d", 
    "latitude": 40.755101, 
    "locality": "New York", 
    "longitude": -73.984109, 
    "name": "Kero's Halal Food", 
    "phone": "", 
    "postal_code": "", 
    "region": "NY", 
    "street_address": "Moving Target", 
    "website": ""
  }, 
  {
    "country": "United States", 
    "id": "97571d31e82bebad3c78", 
    "latitude": 40.729115, 
    "locality": "New York", 
    "longitude": -73.978141, 
    "name": "Pouring Ribbons", 
    "phone": "9176566788", 
    "postal_code": "10009", 
    "region": "NY", 
    "street_address": "225 Ave. B", 
    "website": "http://www.pouringribbons.com/"
  }, 
  {
    "country": "United States", 
    "id": "256d81ee3d7ec6e288b7", 
    "latitude": 40.8430023090679, 
    "locality": "New York", 
    "longitude": -73.9383558149642, 
    "name": "Brasbytarlen Deli Corporation", 
    "phone": "2126851230", 
    "postal_code": "10032", 
    "region": "NY", 
    "street_address": "1230 St. Nicholas Ave.", 
    "website": ""
  }, 
  {
    "country": "United States", 
    "id": "aaef4bd1583cab685d81", 
    "latitude": 40.719263, 
    "locality": "New York", 
    "longitude": -73.996745, 
    "name": "Red Mango", 
    "phone": "", 
    "postal_code": "", 
    "region": "NY", 
    "street_address": "203 Grand St.", 
    "website": ""
  }, 
  {
    "country": "United States", 
    "id": "8510b503bcc759491d70", 
    "latitude": 40.7537, 
    "locality": "New York", 
    "longitude": -73.9855, 
    "name": "Croton Reservoir Tavern", 
    "phone": "2129976835", 
    "postal_code": "10018", 
    "region": "NY", 
    "street_address": "108 West 40th St.", 
    "website": "http://www.crotonnyc.com"
  }, 
  {
    "country": "United States", 
    "id": "b2e63bd43773f3a1d605", 
    "latitude": 40.750806, 
    "locality": "New York", 
    "longitude": -73.985979, 
    "name": "The Keg Room", 
    "phone": "2126431400", 
    "postal_code": "10018", 
    "region": "NY", 
    "street_address": "53 West 36th St.", 
    "website": "http://www.thekegroomnyc.com/"
  }, 
  {
    "country": "United States", 
    "id": "055c15cbb67241fdc9cc", 
    "latitude": 40.752032, 
    "locality": "New York", 
    "longitude": -73.985774, 
    "name": "Culture Espresso", 
    "phone": "2123020200", 
    "postal_code": "10018", 
    "region": "NY", 
    "street_address": "72 West 38th St.", 
    "website": "http://www.cultureespresso.com/"
  }, 
  {
    "country": "United States", 
    "id": "f771bfc7febe54961180", 
    "latitude": 40.866186, 
    "locality": "New York", 
    "longitude": -73.920107, 
    "name": "Empire Chinese Restaurant", 
    "phone": "2125691212", 
    "postal_code": "10034", 
    "region": "NY", 
    "street_address": "563 W. 207th St. # A", 
    "website": "http://www.newyorkchinese.netfirms.com"
  }, 
  {
    "country": "United States", 
    "id": "9fef955fd3b1f3e01e89", 
    "latitude": 40.727747, 
    "locality": "New York", 
    "longitude": -73.987826, 
    "name": "Via Della Pace", 
    "phone": "2122535803", 
    "postal_code": "10075", 
    "region": "NY", 
    "street_address": "48 East 7th St.", 
    "website": "http://www.viadellapacenyc.com"
  }, 
  {
    "country": "United States", 
    "id": "34d37533a98a49ee72b2", 
    "latitude": 40.7050260778169, 
    "locality": "New York", 
    "longitude": -74.0080690383911, 
    "name": "Matchmaker Cafe", 
    "phone": "2127120500", 
    "postal_code": "10005", 
    "region": "NY", 
    "street_address": "75 Wall St.", 
    "website": ""
  }, 
  {
    "country": "United States", 
    "id": "0dc3563b263a4f6020ef", 
    "latitude": 40.808977, 
    "locality": "New York", 
    "longitude": -73.938714, 
    "name": "Fishers of Men", 
    "phone": "2128284447", 
    "postal_code": "10037", 
    "region": "NY", 
    "street_address": "32 East 130th St.", 
    "website": "http://fishersofmeninc.com/restaurant.html"
  }, 
  {
    "country": "United States", 
    "id": "4b0ee5a6e63dc234a0fc", 
    "latitude": 40.7425694334239, 
    "locality": "New York", 
    "longitude": -73.9989484891448, 
    "name": "Seamless HQ", 
    "phone": "", 
    "postal_code": "10013", 
    "region": "NY", 
    "street_address": "163 W. 17th St.", 
    "website": ""
  }, 
  {
    "country": "United States", 
    "id": "c500ae604d323abf60d7", 
    "latitude": 40.719465, 
    "locality": "New York", 
    "longitude": -74.042771, 
    "name": "Hana Sushi", 
    "phone": "2126190039", 
    "postal_code": "", 
    "region": "NY", 
    "street_address": "372 Greenwich St.", 
    "website": ""
  }, 
  {
    "country": "United States", 
    "id": "3f271b1f8521ea7ef449", 
    "latitude": 40.673771, 
    "locality": "New York", 
    "longitude": -73.956973, 
    "name": "Little Zelda", 
    "phone": "3473782915", 
    "postal_code": "11238", 
    "region": "NY", 
    "street_address": "728 Franklin Ave.", 
    "website": ""
  }, 
  {
    "country": "United States", 
    "id": "2926168437e404dea811", 
    "latitude": 40.774655541911, 
    "locality": "New York", 
    "longitude": -73.9548761946604, 
    "name": "Club 2099 - NYC", 
    "phone": "", 
    "postal_code": "10075", 
    "region": "NY", 
    "street_address": "East 80th St.", 
    "website": ""
  }, 
  {
    "country": "United States", 
    "id": "84c11c5678fdf7eca5d6", 
    "latitude": 40.7254069834424, 
    "locality": "New York", 
    "longitude": -73.9884521762624, 
    "name": "Joe's Weenie Palace", 
    "phone": "", 
    "postal_code": "10003", 
    "region": "NY", 
    "street_address": "", 
    "website": ""
  }, 
  {
    "country": "United States", 
    "id": "630cd289183408c67227", 
    "latitude": 40.7616689126241, 
    "locality": "New York", 
    "longitude": -73.9601454280593, 
    "name": "Angels", 
    "phone": "2129803131", 
    "postal_code": "10065", 
    "region": "NY", 
    "street_address": "1135 1st Ave.", 
    "website": "http://www.angelsnyc.com/"
  }, 
  {
    "country": "United States", 
    "id": "85bfe2d1e719469936c8", 
    "latitude": 40.772951, 
    "locality": "New York", 
    "longitude": -73.950018, 
    "name": "The Wine Depository", 
    "phone": "", 
    "postal_code": "10028", 
    "region": "NY", 
    "street_address": "444 E. 81st St.", 
    "website": ""
  }, 
  {
    "country": "United States", 
    "id": "8140579f924ab90b3188", 
    "latitude": 40.7481, 
    "locality": "New York", 
    "longitude": -73.993599, 
    "name": "Catering", 
    "phone": "2125645370", 
    "postal_code": "", 
    "region": "NY", 
    "street_address": "224 W. 29th St.", 
    "website": "http://www.thecateringcompanynyc.com"
  }, 
  {
    "country": "United States", 
    "id": "d7c0f5ca7f6e8518c6a4", 
    "latitude": 40.748027, 
    "locality": "New York", 
    "longitude": -74.004119, 
    "name": "The Drunken Horse", 
    "phone": "2126040505", 
    "postal_code": "10011", 
    "region": "NY", 
    "street_address": "225 10th Ave.", 
    "website": "http://www.drunkenhorse.net/"
  }, 
  {
    "country": "United States", 
    "id": "5a1152e448ff15651777", 
    "latitude": 40.71319, 
    "locality": "New York", 
    "longitude": -73.992418, 
    "name": "Herbal Medicine Store", 
    "phone": "2126085961", 
    "postal_code": "", 
    "region": "NY", 
    "street_address": "19 Pike St.", 
    "website": ""
  }, 
  {
    "country": "United States", 
    "id": "80fb0d0da4e2fb0a3795", 
    "latitude": 40.7184121198087, 
    "locality": "New York", 
    "longitude": -73.9939284324646, 
    "name": "Snacks Table", 
    "phone": "", 
    "postal_code": "10002", 
    "region": "NY", 
    "street_address": "Grand St.", 
    "website": ""
  }, 
  {
    "country": "United States", 
    "id": "859c9601db9c61af0a22", 
    "latitude": 40.776132, 
    "locality": "New York", 
    "longitude": -73.954456, 
    "name": "The Basement", 
    "phone": "", 
    "postal_code": "10028", 
    "region": "NY", 
    "street_address": "", 
    "website": ""
  }, 
  {
    "country": "United States", 
    "id": "18bf4a6421fea2c59ae2", 
    "latitude": 40.7737405294144, 
    "locality": "New York", 
    "longitude": -73.9483152815761, 
    "name": "Yorkafe", 
    "phone": "", 
    "postal_code": "10028", 
    "region": "NY", 
    "street_address": "501 1/2 E. 83rd", 
    "website": ""
  }, 
  {
    "country": "United States", 
    "id": "f8dad015e94172a17ddb", 
    "latitude": 40.710977, 
    "locality": "New York", 
    "longitude": -74.00696, 
    "name": "Famous Original Ray's Pizza", 
    "phone": "2123469400", 
    "postal_code": "", 
    "region": "NY", 
    "street_address": "123 Nassau St.", 
    "website": ""
  }, 
  {
    "country": "United States", 
    "id": "fa61328a95113adea64a", 
    "latitude": 40.715097, 
    "locality": "New York", 
    "longitude": -74.009359, 
    "name": "Smyth Tribeca, a Thompson Hotel", 
    "phone": "2125877000", 
    "postal_code": "10007", 
    "region": "NY", 
    "street_address": "85 West Broadway", 
    "website": "http://www.thompsonhotels.com/hotels/nyc/smyth-tribeca"
  }, 
  {
    "country": "United States", 
    "id": "63612334ffa68f29acd0", 
    "latitude": 40.7408258693624, 
    "locality": "New York", 
    "longitude": -73.9933015556966, 
    "name": "West Side Club", 
    "phone": "2126912700", 
    "postal_code": "10010", 
    "region": "NY", 
    "street_address": "27 W. 20th St., New York, Ny 10010", 
    "website": "http://www.westsideclubnyc.com"
  }, 
  {
    "country": "United States", 
    "id": "4a12e9d0f26dd07e3a6d", 
    "latitude": 40.7356, 
    "locality": "New York", 
    "longitude": -73.9981, 
    "name": "Flacos Taco and Tequila", 
    "phone": "2122438226", 
    "postal_code": "", 
    "region": "NY", 
    "street_address": "470 Ave. Of The Americas", 
    "website": ""
  }, 
  {
    "country": "United States", 
    "id": "69376be749550e23e147", 
    "latitude": 40.782136, 
    "locality": "New York", 
    "longitude": -73.953583, 
    "name": "Sushi Maru", 
    "phone": "2129966900", 
    "postal_code": "10128", 
    "region": "NY", 
    "street_address": "1364 Lexington Ave.", 
    "website": ""
  }, 
  {
    "country": "United States", 
    "id": "a5504528cf084c36774f", 
    "latitude": 40.761, 
    "locality": "New York", 
    "longitude": -73.991, 
    "name": "Cara Mia", 
    "phone": "2122626767", 
    "postal_code": "10036", 
    "region": "NY", 
    "street_address": "654 9th Ave.", 
    "website": "http://www.caramiany.com/"
  }, 
  {
    "country": "United States", 
    "id": "f1865167aca3c794cda9", 
    "latitude": 40.743596, 
    "locality": "New York", 
    "longitude": -74.003229, 
    "name": "Bathtub Gin", 
    "phone": "6465591671", 
    "postal_code": "10011", 
    "region": "NY", 
    "street_address": "132 9th Ave.", 
    "website": "http://www.bathtubginnyc.com"
  }, 
  {
    "country": "United States", 
    "id": "c5391726e33c39170c4b", 
    "latitude": 40.7654, 
    "locality": "New York", 
    "longitude": -73.984047, 
    "name": "Hale & Hearty", 
    "phone": "2122478200", 
    "postal_code": "10019", 
    "region": "NY", 
    "street_address": "927 8th Ave.", 
    "website": "http://www.haleandhearty.com/"
  }, 
  {
    "country": "United States", 
    "id": "01df5e077c66a5d23d35", 
    "latitude": 40.681153, 
    "locality": "New York", 
    "longitude": -73.976389, 
    "name": "City Sub", 
    "phone": "7183982592", 
    "postal_code": "11217", 
    "region": "NY", 
    "street_address": "450 Bergen St.", 
    "website": ""
  }, 
  {
    "country": "United States", 
    "id": "1a00f12a411841bc00d9", 
    "latitude": 40.748545, 
    "locality": "New York", 
    "longitude": -73.975874, 
    "name": "Margarita Murphys", 
    "phone": "2126844421", 
    "postal_code": "10016", 
    "region": "NY", 
    "street_address": "591 3rd Ave.", 
    "website": "http://margaritamurphys.com/"
  }, 
  {
    "country": "United States", 
    "id": "99e7b949c5ee8455c761", 
    "latitude": 40.7293317787125, 
    "locality": "New York", 
    "longitude": -73.9798148124654, 
    "name": "Casa De Rifkin", 
    "phone": "", 
    "postal_code": "10009", 
    "region": "NY", 
    "street_address": "525 E. 13th St., New York, Ny 10009", 
    "website": ""
  }, 
  {
    "country": "United States", 
    "id": "9c64a3b771ad7c8ee907", 
    "latitude": 40.8249570345831, 
    "locality": "New York", 
    "longitude": -73.9512383937836, 
    "name": "La Posada", 
    "phone": "2122812164", 
    "postal_code": "10031", 
    "region": "NY", 
    "street_address": "3496 Broadway", 
    "website": ""
  }, 
  {
    "country": "United States", 
    "id": "748726c24134fba37f75", 
    "latitude": 40.764337, 
    "locality": "New York", 
    "longitude": -73.958641, 
    "name": "Pizza Park Corporation", 
    "phone": "2128796444", 
    "postal_code": "10065", 
    "region": "NY", 
    "street_address": "1233 1st Ave.", 
    "website": ""
  }, 
  {
    "country": "United States", 
    "id": "048415e46cdb2786808b", 
    "latitude": 40.781297, 
    "locality": "New York", 
    "longitude": -73.949247, 
    "name": "Red Rock Roadhouse Bar & Grill", 
    "phone": "2123606827", 
    "postal_code": "10128", 
    "region": "NY", 
    "street_address": "1754 2nd Ave.", 
    "website": ""
  }, 
  {
    "country": "United States", 
    "id": "d88cb4e6015c5e3e553b", 
    "latitude": 40.722917, 
    "locality": "New York", 
    "longitude": -74.001053, 
    "name": "Cicada - Soho", 
    "phone": "", 
    "postal_code": "10012", 
    "region": "NY", 
    "street_address": "Soho", 
    "website": ""
  }, 
  {
    "country": "United States", 
    "id": "e344ae35ec02abf20c3f", 
    "latitude": 40.759261, 
    "locality": "New York", 
    "longitude": -73.984085, 
    "name": "Bar @ The Palace Theater", 
    "phone": "", 
    "postal_code": "10036", 
    "region": "NY", 
    "street_address": "Broadway", 
    "website": ""
  }, 
  {
    "country": "United States", 
    "id": "0289c4aa16c8257a59fc", 
    "latitude": 40.778, 
    "locality": "New York", 
    "longitude": -73.950104, 
    "name": "Anna Maria Pizzeria", 
    "phone": "2127227725", 
    "postal_code": "", 
    "region": "NY", 
    "street_address": "1681 1st Ave.", 
    "website": ""
  }, 
  {
    "country": "United States", 
    "id": "6c9b6e907b97941499f6", 
    "latitude": 40.821728, 
    "locality": "New York", 
    "longitude": -73.953858, 
    "name": "Cafe Largo", 
    "phone": "2122341811", 
    "postal_code": "10031", 
    "region": "NY", 
    "street_address": "3387 Broadway", 
    "website": ""
  }, 
  {
    "country": "United States", 
    "id": "821fe4639ed647c87b25", 
    "latitude": 40.7549475952776, 
    "locality": "New York", 
    "longitude": -73.9953904813607, 
    "name": "9th Ave Wine", 
    "phone": "", 
    "postal_code": "10018", 
    "region": "NY", 
    "street_address": "385 1st Ave., 19d", 
    "website": ""
  }, 
  {
    "country": "United States", 
    "id": "d7f72122e98c380962d0", 
    "latitude": 40.707199, 
    "locality": "New York", 
    "longitude": -74.008434, 
    "name": "Pita Press", 
    "phone": "2124255123", 
    "postal_code": "10005", 
    "region": "NY", 
    "street_address": "25 Cedar St.", 
    "website": ""
  }, 
  {
    "country": "United States", 
    "id": "650e317bc17663e5e617", 
    "latitude": 40.77592, 
    "locality": "New York", 
    "longitude": -73.95315, 
    "name": "Fancy Deli", 
    "phone": "", 
    "postal_code": "10028", 
    "region": "NY", 
    "street_address": "", 
    "website": ""
  }, 
  {
    "country": "United States", 
    "id": "01bf3ec927c9dbae6a30", 
    "latitude": 40.762332, 
    "locality": "New York", 
    "longitude": -73.986417, 
    "name": "Ichimasa", 
    "phone": "2123154800", 
    "postal_code": "10019", 
    "region": "NY", 
    "street_address": "302 West 50th St.", 
    "website": ""
  }, 
  {
    "country": "United States", 
    "id": "d5438bee1fe7ce23c22f", 
    "latitude": 40.738466, 
    "locality": "New York", 
    "longitude": -73.981915, 
    "name": "Tan Tat Restaurant", 
    "phone": "2125326577", 
    "postal_code": "10010", 
    "region": "NY", 
    "street_address": "221 East 23rd St.", 
    "website": ""
  }, 
  {
    "country": "United States", 
    "id": "7eaf04006a0878ba28b6", 
    "latitude": 40.723997, 
    "locality": "New York", 
    "longitude": -74.00318, 
    "name": "Thom Bar", 
    "phone": "2122193200", 
    "postal_code": "10012", 
    "region": "NY", 
    "street_address": "60 Thompson St.", 
    "website": "http://www.thompsonhotels.com/hotels/nyc/60-thompson/drink/thom-bar"
  }, 
  {
    "country": "United States", 
    "id": "15af7a343e331f3b0b03", 
    "latitude": 40.771645, 
    "locality": "New York", 
    "longitude": -73.981032, 
    "name": "Boulud Sud", 
    "phone": "2125951313", 
    "postal_code": "10023", 
    "region": "NY", 
    "street_address": "20 West 64th St.", 
    "website": "http://www.danielnyc.com"
  }, 
  {
    "country": "United States", 
    "id": "2ffd16d340589d82217d", 
    "latitude": 40.77112, 
    "locality": "New York", 
    "longitude": -73.95647, 
    "name": "Hanabi Japanese Restaurant", 
    "phone": "2125701888", 
    "postal_code": "10021", 
    "region": "NY", 
    "street_address": "1450 2nd Ave.", 
    "website": "http://hanabijapaneserestaurant.com/"
  }, 
  {
    "country": "United States", 
    "id": "39c4fd22ed87a6895d8c", 
    "latitude": 40.802763, 
    "locality": "New York", 
    "longitude": -73.968034, 
    "name": "Indian Cafe", 
    "phone": "2127499200", 
    "postal_code": "10025", 
    "region": "NY", 
    "street_address": "2791 Broadway", 
    "website": "http://www.indiancafenyc.com"
  }, 
  {
    "country": "United States", 
    "id": "a3a8b75788f412fb9808", 
    "latitude": 40.70769, 
    "locality": "New York", 
    "longitude": -74.005438, 
    "name": "Mister Softee South St Seaport", 
    "phone": "", 
    "postal_code": "", 
    "region": "NY", 
    "street_address": "", 
    "website": ""
  }, 
  {
    "country": "United States", 
    "id": "77444115de91f6871f0a", 
    "latitude": 40.7444933426112, 
    "locality": "New York", 
    "longitude": -73.9835214614868, 
    "name": "Grouper At Gansevoort Park", 
    "phone": "", 
    "postal_code": "10016", 
    "region": "NY", 
    "street_address": "", 
    "website": ""
  }, 
  {
    "country": "United States", 
    "id": "8fdd27dee2d3cc928f07", 
    "latitude": 40.772249, 
    "locality": "New York", 
    "longitude": -73.960745, 
    "name": "Eats", 
    "phone": "2123963287", 
    "postal_code": "10021", 
    "region": "NY", 
    "street_address": "1055 Lexington Ave.", 
    "website": "http://www.eatsonlex.com"
  }, 
  {
    "country": "United States", 
    "id": "c7d1bfac641150e8cecb", 
    "latitude": 40.741972, 
    "locality": "New York", 
    "longitude": -74.001097, 
    "name": "Chipotle Mexican Grill", 
    "phone": "2126204015", 
    "postal_code": "10011", 
    "region": "NY", 
    "street_address": "149 8th Ave.", 
    "website": "http://www.chipotle.com/"
  }, 
  {
    "country": "United States", 
    "id": "bf5762dcbb72925eaad8", 
    "latitude": 40.7818299463909, 
    "locality": "New York", 
    "longitude": -73.9553124329507, 
    "name": "Annie Fruit & Vegetable", 
    "phone": "", 
    "postal_code": "10128", 
    "region": "NY", 
    "street_address": "1330 Lexington Ave.", 
    "website": ""
  }, 
  {
    "country": "United States", 
    "id": "d838c966ab80a6eeb9e5", 
    "latitude": 40.854903, 
    "locality": "New York", 
    "longitude": -73.937122, 
    "name": "Monkey Room", 
    "phone": "2125439888", 
    "postal_code": "10033", 
    "region": "NY", 
    "street_address": "589 Fort Washington Ave.", 
    "website": "http://monkeyroomnyc.com/index.html"
  }, 
  {
    "country": "United States", 
    "id": "067c3b26273bd467ccc4", 
    "latitude": 40.725855, 
    "locality": "New York", 
    "longitude": -73.996523, 
    "name": "Little Cupcake Lover Cart", 
    "phone": "", 
    "postal_code": "10012", 
    "region": "NY", 
    "street_address": "620 Broadway", 
    "website": ""
  }, 
  {
    "country": "United States", 
    "id": "3860d060662a17cbf84e", 
    "latitude": 40.727074, 
    "locality": "New York", 
    "longitude": -73.983868, 
    "name": "Macaron Parlour", 
    "phone": "2123879169", 
    "postal_code": "10009", 
    "region": "NY", 
    "street_address": "111 Saint Marks Pl.", 
    "website": "http://www.macaronparlour.com/"
  }, 
  {
    "country": "United States", 
    "id": "5b9ba4c716fd405c3d7f", 
    "latitude": 40.749003, 
    "locality": "New York", 
    "longitude": -73.972418, 
    "name": "Manymenuscom", 
    "phone": "2123527218", 
    "postal_code": "", 
    "region": "NY", 
    "street_address": "314 E. 41st St.", 
    "website": ""
  }, 
  {
    "country": "United States", 
    "id": "f25fe9a082fa035b0e22", 
    "latitude": 40.764082, 
    "locality": "New York", 
    "longitude": -73.986643, 
    "name": "Bamboo 52", 
    "phone": "2123152777", 
    "postal_code": "10019", 
    "region": "NY", 
    "street_address": "344 West 52nd St.", 
    "website": "http://www.bamboo52nyc.com"
  }, 
  {
    "country": "United States", 
    "id": "998fa3bc9280b45586b1", 
    "latitude": 40.716167, 
    "locality": "New York", 
    "longitude": -73.995666, 
    "name": "Diamond Hill Cafe", 
    "phone": "2129662278", 
    "postal_code": "10002", 
    "region": "NY", 
    "street_address": "147 Canal St.", 
    "website": "http://www.diamondhillnyc.com/"
  }, 
  {
    "country": "United States", 
    "id": "cfb813b550779e20dd3b", 
    "latitude": 40.719677, 
    "locality": "New York", 
    "longitude": -73.988559, 
    "name": "Chickie Pig's Brick Oven & Pizzeria", 
    "phone": "2122549972", 
    "postal_code": "10002", 
    "region": "NY", 
    "street_address": "121 Ludlow St.", 
    "website": ""
  }, 
  {
    "country": "United States", 
    "id": "f65d72a43c68d25e4834", 
    "latitude": 40.761239, 
    "locality": "New York", 
    "longitude": -73.97312, 
    "name": "Shallots New York", 
    "phone": "2128337800", 
    "postal_code": "10022", 
    "region": "NY", 
    "street_address": "550 Madison Ave.", 
    "website": "http://www.shallotsny.com"
  }, 
  {
    "country": "United States", 
    "id": "44094807ce7dc5c2a210", 
    "latitude": 40.755355, 
    "locality": "New York", 
    "longitude": -73.981334, 
    "name": "Forty Four", 
    "phone": "2129448844", 
    "postal_code": "10036", 
    "region": "NY", 
    "street_address": "44 West 44th St.", 
    "website": "http://www.royaltonhotel.com/"
  }, 
  {
    "country": "United States", 
    "id": "8c755029c55015ec6f3a", 
    "latitude": 40.620312, 
    "locality": "New York", 
    "longitude": -74.099177, 
    "name": "Marie's Gourmet", 
    "phone": "7189814664", 
    "postal_code": "10301", 
    "region": "NY", 
    "street_address": "977 Victory Blvd.", 
    "website": ""
  }, 
  {
    "country": "United States", 
    "id": "5788773aebee0c4f02ea", 
    "latitude": 40.779276, 
    "locality": "New York", 
    "longitude": -73.954651, 
    "name": "Eastside Billiards", 
    "phone": "2128317665", 
    "postal_code": "10028", 
    "region": "NY", 
    "street_address": "163 East 86th St.", 
    "website": "http://www.eastsidebilliards.com/"
  }, 
  {
    "country": "United States", 
    "id": "e1eac00079c3a7b7e3c7", 
    "latitude": 40.70356, 
    "locality": "New York", 
    "longitude": -74.010016, 
    "name": "Davinci Pizza Restaurant", 
    "phone": "2126352424", 
    "postal_code": "10004", 
    "region": "NY", 
    "street_address": "44 Water St.", 
    "website": ""
  }, 
  {
    "country": "United States", 
    "id": "57b05ced28da7d1add9f", 
    "latitude": 40.846225, 
    "locality": "New York", 
    "longitude": -73.786262, 
    "name": "The Tree House Restaurant", 
    "phone": "7188850806", 
    "postal_code": "10464", 
    "region": "NY", 
    "street_address": "273 City Island Ave.", 
    "website": ""
  }, 
  {
    "country": "United States", 
    "id": "8921f941b71605f872c5", 
    "latitude": 40.751512, 
    "locality": "New York", 
    "longitude": -73.970561, 
    "name": "Chopita Restaurant LLC", 
    "phone": "2124997482", 
    "postal_code": "10017", 
    "region": "NY", 
    "street_address": "Judy Dr.", 
    "website": "http://chopitanyc.com/about.html"
  }, 
  {
    "country": "United States", 
    "id": "62c7d8b061d353cdc99e", 
    "latitude": 40.810079, 
    "locality": "New York", 
    "longitude": -73.94390343, 
    "name": "Lenox Deli & Grocery", 
    "phone": "", 
    "postal_code": "10027", 
    "region": "NY", 
    "street_address": "360 Lenox Ave.", 
    "website": ""
  }, 
  {
    "country": "United States", 
    "id": "2f17cac5cd823da2ed97", 
    "latitude": 40.8160543441772, 
    "locality": "New York", 
    "longitude": -73.954017162323, 
    "name": "The FOODAH Place", 
    "phone": "", 
    "postal_code": "10027", 
    "region": "NY", 
    "street_address": "1425 Amsterdam Ave.", 
    "website": ""
  }, 
  {
    "country": "United States", 
    "id": "dff29a6e2f289a170f41", 
    "latitude": 40.7919410835552, 
    "locality": "New York", 
    "longitude": -73.938258226878, 
    "name": "The Real Clubhouse - Harlem", 
    "phone": "", 
    "postal_code": "10029", 
    "region": "NY", 
    "street_address": "2133 First Ave.", 
    "website": ""
  }, 
  {
    "country": "United States", 
    "id": "a20f7a82790629bb9360", 
    "latitude": 40.7654442650919, 
    "locality": "New York", 
    "longitude": -73.9834018047158, 
    "name": "The Modern, Lounge Room", 
    "phone": "", 
    "postal_code": "10019", 
    "region": "NY", 
    "street_address": "243 West 55th St.", 
    "website": ""
  }, 
  {
    "country": "United States", 
    "id": "8a32503d5f7c60a59ec4", 
    "latitude": 40.846483, 
    "locality": "New York", 
    "longitude": -73.935786, 
    "name": "Little Caesars Pizza", 
    "phone": "2125432127", 
    "postal_code": "10033", 
    "region": "NY", 
    "street_address": "1332 Saint Nicholas Ave.", 
    "website": "http://www.littlecaesars.com/?utm_source=google&utm_medium=local&utm_content=17480001&utm_campaign=localmaps"
  }, 
  {
    "country": "United States", 
    "id": "fb9e28dcbb95eea85537", 
    "latitude": 40.719676, 
    "locality": "New York", 
    "longitude": -73.990419, 
    "name": "Sweet And Low Down", 
    "phone": "2127770408", 
    "postal_code": "10002", 
    "region": "NY", 
    "street_address": "123 Allen St.", 
    "website": "http://www.howsweetitispastry.com"
  }, 
  {
    "country": "United States", 
    "id": "0ee1da7a7d1b5f6eb370", 
    "latitude": 40.754312, 
    "locality": "New York", 
    "longitude": -73.929535, 
    "name": "City View Plaza Restaurant", 
    "phone": "7184828886", 
    "postal_code": "11106", 
    "region": "NY", 
    "street_address": "3223 37th Ave.", 
    "website": ""
  }, 
  {
    "country": "United States", 
    "id": "773c140c2d46e21f6a80", 
    "latitude": 40.757952, 
    "locality": "New York", 
    "longitude": -73.984274, 
    "name": "Le Marais", 
    "phone": "2128690900", 
    "postal_code": "10036", 
    "region": "NY", 
    "street_address": "150 West 46th St.", 
    "website": "http://www.lemarais.net/"
  }, 
  {
    "country": "United States", 
    "id": "22baa9db0e5c7b7a20ae", 
    "latitude": 40.74105030648, 
    "locality": "New York", 
    "longitude": -73.9903173367045, 
    "name": "Bob & Jo Korean Fusion Cuisine", 
    "phone": "", 
    "postal_code": "", 
    "region": "NY", 
    "street_address": "", 
    "website": "http://bobjo.net"
  }, 
  {
    "country": "United States", 
    "id": "3f5571058faaa2aa6fbe", 
    "latitude": 40.7341141178137, 
    "locality": "New York", 
    "longitude": -74.0071546098823, 
    "name": "Ny Cab", 
    "phone": "", 
    "postal_code": "10013", 
    "region": "NY", 
    "street_address": "", 
    "website": ""
  }, 
  {
    "country": "United States", 
    "id": "6de74a6dd283ba5b7015", 
    "latitude": 40.749727, 
    "locality": "New York", 
    "longitude": -73.977135, 
    "name": "Giuseppe's Pizza", 
    "phone": "2126834721", 
    "postal_code": "10016", 
    "region": "NY", 
    "street_address": "341 Lexington Ave.", 
    "website": ""
  }, 
  {
    "country": "United States", 
    "id": "3c8f84faed4192cd9642", 
    "latitude": 40.776699, 
    "locality": "New York", 
    "longitude": -73.955299, 
    "name": "Wicker Park", 
    "phone": "2127345600", 
    "postal_code": "10028", 
    "region": "NY", 
    "street_address": "1469 3rd Ave.", 
    "website": "http://www.wickerparknyc.com"
  }, 
  {
    "country": "United States", 
    "id": "4f48f040e6223fe9f407", 
    "latitude": 40.801356, 
    "locality": "New York", 
    "longitude": -73.961116, 
    "name": "Hunan's Kitchen", 
    "phone": "2122221118", 
    "postal_code": "10025", 
    "region": "NY", 
    "street_address": "1003 Columbus Ave.", 
    "website": ""
  }, 
  {
    "country": "United States", 
    "id": "56b634adfb7802c389bf", 
    "latitude": 40.7513152657777, 
    "locality": "New York", 
    "longitude": -73.9922054345001, 
    "name": "IKON Lunch Room", 
    "phone": "", 
    "postal_code": "10119", 
    "region": "NY", 
    "street_address": "One Penn Plaza", 
    "website": ""
  }, 
  {
    "country": "United States", 
    "id": "f41fdba5e5ea9c303836", 
    "latitude": 40.722487, 
    "locality": "New York", 
    "longitude": -73.995221, 
    "name": "Liebe Gourmet Indian Fusion", 
    "phone": "2127965744", 
    "postal_code": "10012", 
    "region": "NY", 
    "street_address": "227 Mott St.", 
    "website": "http://www.liebeus.com/"
  }, 
  {
    "country": "United States", 
    "id": "b1e58fcd29c3937db0d0", 
    "latitude": 40.7452592102416, 
    "locality": "New York", 
    "longitude": -73.9826098025865, 
    "name": "Chipotle Mexican Grill", 
    "phone": "2126890305", 
    "postal_code": "10016", 
    "region": "NY", 
    "street_address": "464 Park Ave. S.", 
    "website": "http://www.chipotle.com"
  }, 
  {
    "country": "United States", 
    "id": "d11582a0ea721210edae", 
    "latitude": 40.8137603944118, 
    "locality": "New York", 
    "longitude": -73.9380573100751, 
    "name": "Sharkey's Place", 
    "phone": "", 
    "postal_code": "10037", 
    "region": "NY", 
    "street_address": "", 
    "website": ""
  }, 
  {
    "country": "United States", 
    "id": "1084b54948ace77e9625", 
    "latitude": 40.76556, 
    "locality": "New York", 
    "longitude": -73.983434, 
    "name": "Meze Grill", 
    "phone": "2129699782", 
    "postal_code": "10019", 
    "region": "NY", 
    "street_address": "934 8th Ave.", 
    "website": "http://www.mezegrill.com"
  }, 
  {
    "country": "United States", 
    "id": "9e9f2f90427381042556", 
    "latitude": 40.7361868327362, 
    "locality": "New York", 
    "longitude": -74.0009914443955, 
    "name": "Elephant & Castle", 
    "phone": "2122431400", 
    "postal_code": "10011", 
    "region": "NY", 
    "street_address": "68 Greenwich Ave.", 
    "website": "http://www.elephantandcastle.com"
  }, 
  {
    "country": "United States", 
    "id": "fc3461bbee13b9e00761", 
    "latitude": 40.743762, 
    "locality": "New York", 
    "longitude": -73.976609, 
    "name": "Dean and Deluca", 
    "phone": "2126961369", 
    "postal_code": "10016", 
    "region": "NY", 
    "street_address": "576 2nd Ave.", 
    "website": "http://www.deandeluca.com"
  }, 
  {
    "country": "United States", 
    "id": "b330b22ed7ea7825202c", 
    "latitude": 40.7303782194698, 
    "locality": "New York", 
    "longitude": -73.989335977624, 
    "name": "Axel's Bed", 
    "phone": "", 
    "postal_code": "10003", 
    "region": "NY", 
    "street_address": "33 3rd Ave.", 
    "website": ""
  }, 
  {
    "country": "United States", 
    "id": "20dfc917e5831a52a62c", 
    "latitude": 40.677171, 
    "locality": "New York", 
    "longitude": -73.980054, 
    "name": "Lobo Park Slope", 
    "phone": "7186368886", 
    "postal_code": "11217", 
    "region": "NY", 
    "street_address": "188 5th Ave. # A", 
    "website": "http://www.lobonyc.com/"
  }, 
  {
    "country": "United States", 
    "id": "ce9c6db4be9d9b9ce66f", 
    "latitude": 40.744392, 
    "locality": "New York", 
    "longitude": -73.996715, 
    "name": "Doughnut Plant", 
    "phone": "2126759100", 
    "postal_code": "10011", 
    "region": "NY", 
    "street_address": "220 West 23rd St.", 
    "website": "http://www.doughnutplant.com/"
  }, 
  {
    "country": "United States", 
    "id": "538792c1bc84e51d5d36", 
    "latitude": 40.723681, 
    "locality": "New York", 
    "longitude": -74.003806, 
    "name": "Ruben's Empanadas", 
    "phone": "2123343351", 
    "postal_code": "10013", 
    "region": "NY", 
    "street_address": "505 Broome St.", 
    "website": ""
  }, 
  {
    "country": "United States", 
    "id": "8418686eb119c869cf33", 
    "latitude": 40.767835, 
    "locality": "New York", 
    "longitude": -73.964341, 
    "name": "The Hunter Coffee Bar", 
    "phone": "", 
    "postal_code": "10065", 
    "region": "NY", 
    "street_address": "695 Park Ave.", 
    "website": ""
  }, 
  {
    "country": "United States", 
    "id": "467f17eac7d30243fcf4", 
    "latitude": 40.715055, 
    "locality": "New York", 
    "longitude": -74.011125, 
    "name": "Yorganic", 
    "phone": "2127328888", 
    "postal_code": "10007", 
    "region": "NY", 
    "street_address": "275 Greenwich St.", 
    "website": "http://yorganicnewyork1.com/"
  }, 
  {
    "country": "United States", 
    "id": "4500a10f2df12d1c75e9", 
    "latitude": 40.717677, 
    "locality": "New York", 
    "longitude": -73.995321, 
    "name": "Emperor Japanese Tapas Shabu", 
    "phone": "2122191993", 
    "postal_code": "10013", 
    "region": "NY", 
    "street_address": "96 Bowery", 
    "website": ""
  }, 
  {
    "country": "United States", 
    "id": "c5e5900fb17872661547", 
    "latitude": 40.735954, 
    "locality": "New York", 
    "longitude": -73.986954, 
    "name": "Mendl", 
    "phone": "2125334466", 
    "postal_code": "10003", 
    "region": "NY", 
    "street_address": "56 Irving Pl.", 
    "website": "http://www.innatirving.com/default.aspx?pg=dining"
  }, 
  {
    "country": "United States", 
    "id": "a0f16c351fa077a221ae", 
    "latitude": 40.850702, 
    "locality": "New York", 
    "longitude": -73.93752, 
    "name": "Domino's Pizza", 
    "phone": "2127813700", 
    "postal_code": "10033", 
    "region": "NY", 
    "street_address": "736 West 181st St.", 
    "website": "http://pizza.dominos.com/new-york/new-york/10033/736-w-181st-st/?utm_source=google&utm_medium=organic&utm_campaign=localmaps"
  }, 
  {
    "country": "United States", 
    "id": "5be81fbe1cc29b488b69", 
    "latitude": 40.7384378976541, 
    "locality": "New York", 
    "longitude": -73.9822424961431, 
    "name": "B.E.A.N.S. Chicken", 
    "phone": "6463704400", 
    "postal_code": "10010", 
    "region": "NY", 
    "street_address": "219 E. 23rd St.", 
    "website": ""
  }, 
  {
    "country": "United States", 
    "id": "02d37656a8524d5f11c3", 
    "latitude": 40.76396, 
    "locality": "New York", 
    "longitude": -73.988397, 
    "name": "Go Sushi", 
    "phone": "2124592288", 
    "postal_code": "10019", 
    "region": "NY", 
    "street_address": "756 9th Ave.", 
    "website": "http://gosushi1.com/"
  }, 
  {
    "country": "United States", 
    "id": "36dd13092ceefe691268", 
    "latitude": 40.764426, 
    "locality": "New York", 
    "longitude": -73.980646, 
    "name": "Molyvos", 
    "phone": "2125827500", 
    "postal_code": "10019", 
    "region": "NY", 
    "street_address": "871 7th Ave.", 
    "website": "http://www.molyvos.com"
  }, 
  {
    "country": "United States", 
    "id": "eed8ff3c7b054d37c96a", 
    "latitude": 40.777869, 
    "locality": "New York", 
    "longitude": -73.945787, 
    "name": "Conti's Meat Market Deli", 
    "phone": "2127371064", 
    "postal_code": "10128", 
    "region": "NY", 
    "street_address": "1692 York Ave.", 
    "website": ""
  }, 
  {
    "country": "United States", 
    "id": "0c76fc8abff8fe3f3fd2", 
    "latitude": 40.8002519835828, 
    "locality": "New York", 
    "longitude": -73.9682154564175, 
    "name": "Calcutta Cafe", 
    "phone": "2123169195", 
    "postal_code": "10025", 
    "region": "NY", 
    "street_address": "2535 Broadway", 
    "website": ""
  }, 
  {
    "country": "United States", 
    "id": "d5ff926eb298cbf40364", 
    "latitude": 40.634929, 
    "locality": "New York", 
    "longitude": -73.964994, 
    "name": "Ox Cart Tavern", 
    "phone": "7182840005", 
    "postal_code": "11230", 
    "region": "NY", 
    "street_address": "1301 Newkirk Ave.", 
    "website": "http://www.oxcarttavern.com/"
  }, 
  {
    "country": "United States", 
    "id": "b978a89bcb0b29848e8a", 
    "latitude": 40.7567499360756, 
    "locality": "New York", 
    "longitude": -73.9921689033508, 
    "name": "Leisure Time Lounge", 
    "phone": "", 
    "postal_code": "10018", 
    "region": "NY", 
    "street_address": "625 8th Ave. (Pabt S. Term)", 
    "website": ""
  }, 
  {
    "country": "United States", 
    "id": "96eecd8365d3a242f2b4", 
    "latitude": 40.7077493800191, 
    "locality": "New York", 
    "longitude": -74.0038205571065, 
    "name": "Wendy's", 
    "phone": "2122330873", 
    "postal_code": "10038", 
    "region": "NY", 
    "street_address": "117 Beekman St.", 
    "website": "http://www.wendys.com"
  }, 
  {
    "country": "United States", 
    "id": "195983268a4a7d636618", 
    "latitude": 40.7590904609109, 
    "locality": "New York", 
    "longitude": -73.9846801757812, 
    "name": "DoubleTree Suites Times Square", 
    "phone": "2127191600", 
    "postal_code": "10036", 
    "region": "NY", 
    "street_address": "1568 Broadway", 
    "website": "http://bit.ly/dttsqqrwebsite"
  }, 
  {
    "country": "United States", 
    "id": "dea33185dd6b75e5c515", 
    "latitude": 40.756779, 
    "locality": "New York", 
    "longitude": -73.993828, 
    "name": "AceLuck", 
    "phone": "2125947083", 
    "postal_code": "10018", 
    "region": "NY", 
    "street_address": "530 Ninth Ave.", 
    "website": "http://www.acelucknyc.com"
  }, 
  {
    "country": "United States", 
    "id": "341d4a59135253499353", 
    "latitude": 40.760663, 
    "locality": "New York", 
    "longitude": -73.974435, 
    "name": "Bice Ristorante - NYC", 
    "phone": "2126881999", 
    "postal_code": "10022", 
    "region": "NY", 
    "street_address": "7 East 54 St.", 
    "website": "http://bicenewyork.com/"
  }, 
  {
    "country": "United States", 
    "id": "0b571490dceaf2626156", 
    "latitude": 40.825976, 
    "locality": "New York", 
    "longitude": -73.946861, 
    "name": "Chicken Village Fried", 
    "phone": "2122811060", 
    "postal_code": "10031", 
    "region": "NY", 
    "street_address": "1739 Amsterdam Ave.", 
    "website": ""
  }, 
  {
    "country": "United States", 
    "id": "d07f2d2ef9ab372e405b", 
    "latitude": 40.729054, 
    "locality": "New York", 
    "longitude": -73.988495, 
    "name": "Hinomaru Inc", 
    "phone": "2122546363", 
    "postal_code": "10003", 
    "region": "NY", 
    "street_address": "25 Saint Marks Pl.", 
    "website": ""
  }, 
  {
    "country": "United States", 
    "id": "02daa1a6783bf76f9774", 
    "latitude": 40.744167, 
    "locality": "New York", 
    "longitude": -73.976309, 
    "name": "Greenfield Market", 
    "phone": "2127251700", 
    "postal_code": "", 
    "region": "NY", 
    "street_address": "605 2nd Ave.", 
    "website": ""
  }, 
  {
    "country": "United States", 
    "id": "2ca4932d7d206183e8b0", 
    "latitude": 40.741046, 
    "locality": "New York", 
    "longitude": -73.989893, 
    "name": "Rhong-Tiam Supreme Burger Truck", 
    "phone": "", 
    "postal_code": "", 
    "region": "NY", 
    "street_address": "", 
    "website": ""
  }, 
  {
    "country": "United States", 
    "id": "7fde9628ddafbe3d21b8", 
    "latitude": 40.7806479300865, 
    "locality": "New York", 
    "longitude": -73.9491763064871, 
    "name": "1742 Wine Bar And Lounge", 
    "phone": "", 
    "postal_code": "10128", 
    "region": "NY", 
    "street_address": "", 
    "website": ""
  }, 
  {
    "country": "United States", 
    "id": "7448ce69d39336923a1f", 
    "latitude": 40.7471228422405, 
    "locality": "New York", 
    "longitude": -73.9895942305002, 
    "name": "Famous Curry & Kabob", 
    "phone": "2126857930", 
    "postal_code": "10016", 
    "region": "NY", 
    "street_address": "15 E. 31st St.", 
    "website": ""
  }, 
  {
    "country": "United States", 
    "id": "9e11d589a942c57df89e", 
    "latitude": 40.7388356913476, 
    "locality": "New York", 
    "longitude": -73.9837789535522, 
    "name": "Hidden City Cafe", 
    "phone": "2122287841", 
    "postal_code": "10010", 
    "region": "NY", 
    "street_address": "115 E. 23rd St.", 
    "website": ""
  }, 
  {
    "country": "United States", 
    "id": "a5dbc7811e67ab525a0f", 
    "latitude": 40.74463, 
    "locality": "New York", 
    "longitude": -73.998972, 
    "name": "Noodle Corner", 
    "phone": "2129891668", 
    "postal_code": "10011", 
    "region": "NY", 
    "street_address": "236 8th Ave.", 
    "website": ""
  }, 
  {
    "country": "United States", 
    "id": "ae7a7fa0abdce50aa5d0", 
    "latitude": 40.7250358111094, 
    "locality": "New York", 
    "longitude": -73.9964177194233, 
    "name": "Intelligentsia Training Lab", 
    "phone": "2122034268", 
    "postal_code": "10012", 
    "region": "NY", 
    "street_address": "594 Broadway, Rm 909a", 
    "website": "http://www.intelligentsiacoffee.com/location/new-york-training-lab"
  }, 
  {
    "country": "United States", 
    "id": "881383e565b5131b43fc", 
    "latitude": 40.720329, 
    "locality": "New York", 
    "longitude": -73.9969, 
    "name": "Pat's Bar", 
    "phone": "2126659667", 
    "postal_code": "10025", 
    "region": "NY", 
    "street_address": "998 Amsterdam Ave. # 2", 
    "website": ""
  }, 
  {
    "country": "United States", 
    "id": "fb1e459328b8a3785b4a", 
    "latitude": 40.7614, 
    "locality": "New York", 
    "longitude": -73.9836, 
    "name": "Applebees", 
    "phone": "2122622400", 
    "postal_code": "10019", 
    "region": "NY", 
    "street_address": "205 W. 50th St.", 
    "website": "http://www.applebees.com/"
  }, 
  {
    "country": "United States", 
    "id": "f3e3bba28e51e0bd7144", 
    "latitude": 40.756165, 
    "locality": "New York", 
    "longitude": -73.985035, 
    "name": "Spanky's BBQ", 
    "phone": "2125755848", 
    "postal_code": "", 
    "region": "NY", 
    "street_address": "127 W. 43rd St.", 
    "website": "http://spankysnyc.com"
  }, 
  {
    "country": "United States", 
    "id": "70bb446a409fe915c402", 
    "latitude": 40.760638, 
    "locality": "New York", 
    "longitude": -73.989928, 
    "name": "La Pulperia", 
    "phone": "2129563055", 
    "postal_code": "10036", 
    "region": "NY", 
    "street_address": "371 West 46th St.", 
    "website": "http://www.pulperianyc.com/"
  }, 
  {
    "country": "United States", 
    "id": "72b33e196888d88813f8", 
    "latitude": 40.7085406780243, 
    "locality": "New York", 
    "longitude": -74.0113735198975, 
    "name": "Smoothie and Bubble Tea Cart", 
    "phone": "", 
    "postal_code": "10006", 
    "region": "NY", 
    "street_address": "Broadway", 
    "website": ""
  }, 
  {
    "country": "United States", 
    "id": "786243e5aaa71e1eb30f", 
    "latitude": 40.754134, 
    "locality": "New York", 
    "longitude": -73.987571, 
    "name": "Starbucks Blonde Sampling Event", 
    "phone": "", 
    "postal_code": "10018", 
    "region": "NY", 
    "street_address": "", 
    "website": ""
  }, 
  {
    "country": "United States", 
    "id": "71a3ed466d7b550ceb0d", 
    "latitude": 40.7292947865272, 
    "locality": "New York", 
    "longitude": -73.9893646724052, 
    "name": "Steps in front of Jum mum", 
    "phone": "", 
    "postal_code": "10003", 
    "region": "NY", 
    "street_address": "", 
    "website": ""
  }, 
  {
    "country": "United States", 
    "id": "3ce5c112b5b9c6130586", 
    "latitude": 40.714525, 
    "locality": "New York", 
    "longitude": -74.010127, 
    "name": "Bengal Curry & Kabab", 
    "phone": "2125711122", 
    "postal_code": "10007", 
    "region": "NY", 
    "street_address": "65 W. Broadway", 
    "website": "http://bengalcurrykebabnyc.com"
  }, 
  {
    "country": "United States", 
    "id": "4e16645d07e39393fe3a", 
    "latitude": 40.728042, 
    "locality": "New York", 
    "longitude": -74.001716, 
    "name": "KOO JAPANESE FUSION", 
    "phone": "2122289028", 
    "postal_code": "10012", 
    "region": "NY", 
    "street_address": "142 West Houston St.", 
    "website": "http://koosushinyc.com"
  }, 
  {
    "country": "United States", 
    "id": "002aea7dd462497ceec2", 
    "latitude": 40.778271, 
    "locality": "New York", 
    "longitude": -73.981131, 
    "name": "City Pie", 
    "phone": "2125806969", 
    "postal_code": "10023", 
    "region": "NY", 
    "street_address": "166 West 72nd St.", 
    "website": "http://www.citypie.com/"
  }, 
  {
    "country": "United States", 
    "id": "a65da68c227f02aeb560", 
    "latitude": 40.739663, 
    "locality": "New York", 
    "longitude": -74.006875, 
    "name": "Revel", 
    "phone": "2126455369", 
    "postal_code": "10014", 
    "region": "NY", 
    "street_address": "10 Little West 12th St.", 
    "website": "http://www.revelnyc.com"
  }, 
  {
    "country": "United States", 
    "id": "0211bf6295b10e225415", 
    "latitude": 40.7594114639673, 
    "locality": "New York", 
    "longitude": -73.985002040863, 
    "name": "Snack Box", 
    "phone": "", 
    "postal_code": "10036", 
    "region": "NY", 
    "street_address": "47th And Broadway", 
    "website": "http://www.cititour.com/NYC_Restaurants/Snack-Box/5266"
  }, 
  {
    "country": "United States", 
    "id": "2216d0959f8c09ffd222", 
    "latitude": 40.750788, 
    "locality": "New York", 
    "longitude": -74.005629, 
    "name": "Studio One West", 
    "phone": "2129895581", 
    "postal_code": "10001", 
    "region": "NY", 
    "street_address": "601 W. 26th St.", 
    "website": "http://www.studiogaia.com"
  }, 
  {
    "country": "United States", 
    "id": "4f84800c92dbfe5a4227", 
    "latitude": 40.739396, 
    "locality": "New York", 
    "longitude": -74.002789, 
    "name": "Spice - Chelsea", 
    "phone": "2126204585", 
    "postal_code": "10011", 
    "region": "NY", 
    "street_address": "236th 8th Ave.", 
    "website": "http://www.spicethainyc.com"
  }, 
  {
    "country": "United States", 
    "id": "cf041f103fd19808df10", 
    "latitude": 40.82032081472, 
    "locality": "New York", 
    "longitude": -73.955157453671, 
    "name": "Wally's Deli", 
    "phone": "2122347557", 
    "postal_code": "10031", 
    "region": "NY", 
    "street_address": "3345 Broadway", 
    "website": "http://www.wallys-deli.com"
  }, 
  {
    "country": "United States", 
    "id": "f8592dfe1010ade43f9b", 
    "latitude": 40.777059, 
    "locality": "New York", 
    "longitude": -73.979246, 
    "name": "Columbus 72", 
    "phone": "2127691492", 
    "postal_code": "10023", 
    "region": "NY", 
    "street_address": "246 Columbus Ave.", 
    "website": "http://www.columbus72.com/"
  }, 
  {
    "country": "United States", 
    "id": "d3a8f7af5cb34236ff8e", 
    "latitude": 40.754808, 
    "locality": "New York", 
    "longitude": -73.97529, 
    "name": "Yushi", 
    "phone": "2126871900", 
    "postal_code": "10167", 
    "region": "NY", 
    "street_address": "245 Park Ave.", 
    "website": "http://www.yushi.com/"
  }, 
  {
    "country": "United States", 
    "id": "af08ccb5b7dbf109e3d7", 
    "latitude": 40.790225, 
    "locality": "New York", 
    "longitude": -73.942928, 
    "name": "Milk Burger", 
    "phone": "2123601988", 
    "postal_code": "10029", 
    "region": "NY", 
    "street_address": "2051 2nd Ave.", 
    "website": "http://www.milkburger.com/"
  }, 
  {
    "country": "United States", 
    "id": "cfaf3e8a5b32f1a2479c", 
    "latitude": 40.779469, 
    "locality": "New York", 
    "longitude": -73.977477, 
    "name": "Mughlai", 
    "phone": "2127246363", 
    "postal_code": "10023", 
    "region": "NY", 
    "street_address": "320 Columbus Ave.", 
    "website": "http://mughlainyc.com"
  }, 
  {
    "country": "United States", 
    "id": "0febc32aee463e7d23ed", 
    "latitude": 40.728901, 
    "locality": "New York", 
    "longitude": -74.005377, 
    "name": "Clarkson", 
    "phone": "2126752474", 
    "postal_code": "10014", 
    "region": "NY", 
    "street_address": "225 Varick St.", 
    "website": "http://clarksonrestaurant.com/"
  }, 
  {
    "country": "United States", 
    "id": "d01e29ab74c59fb045ca", 
    "latitude": 40.714414, 
    "locality": "New York", 
    "longitude": -74.01686, 
    "name": "Laughing Man Coffee & Tea", 
    "phone": "2122273240", 
    "postal_code": "10282", 
    "region": "NY", 
    "street_address": "1 North End Ave.", 
    "website": "http://www.livelaughingman.com/"
  }, 
  {
    "country": "United States", 
    "id": "0999d29ea06d088cb391", 
    "latitude": 40.7183562214602, 
    "locality": "New York", 
    "longitude": -73.9852497969858, 
    "name": "VIP Cafe and Bakery", 
    "phone": "2123751368", 
    "postal_code": "10002", 
    "region": "NY", 
    "street_address": "80 Clinton St.", 
    "website": ""
  }, 
  {
    "country": "United States", 
    "id": "bd20e9918f910e72b490", 
    "latitude": 40.792029, 
    "locality": "New York", 
    "longitude": -73.941214, 
    "name": "Taqueria La Fogata", 
    "phone": "2129878321", 
    "postal_code": "10029", 
    "region": "NY", 
    "street_address": "2104 2nd Ave.", 
    "website": ""
  }, 
  {
    "country": "United States", 
    "id": "f4b9b78ab300895ff096", 
    "latitude": 40.718166, 
    "locality": "New York", 
    "longitude": -73.993586, 
    "name": "Galary Bar", 
    "phone": "", 
    "postal_code": "10002", 
    "region": "NY", 
    "street_address": "", 
    "website": ""
  }, 
  {
    "country": "United States", 
    "id": "263da2d5a6718c6fe372", 
    "latitude": 40.76, 
    "locality": "New York", 
    "longitude": -73.991, 
    "name": "Bocca Di Bacco (Theatre District)", 
    "phone": "2122622525", 
    "postal_code": "10036", 
    "region": "NY", 
    "street_address": "635 9th Ave.", 
    "website": "http://nycrg.com/bocca-di-bacco/"
  }, 
  {
    "country": "United States", 
    "id": "c162e1383cbf80099a80", 
    "latitude": 40.76756, 
    "locality": "New York", 
    "longitude": -73.95241, 
    "name": "Tropicalia", 
    "phone": "2127177179", 
    "postal_code": "10021", 
    "region": "NY", 
    "street_address": "York", 
    "website": "http://www.tropicaliabraziliangrill.com"
  }, 
  {
    "country": "United States", 
    "id": "1f783146c63397f29ba5", 
    "latitude": 40.7138045943026, 
    "locality": "New York", 
    "longitude": -73.9805379554908, 
    "name": "Cozy Food Corp.", 
    "phone": "", 
    "postal_code": "", 
    "region": "NY", 
    "street_address": "565 Grand St.", 
    "website": ""
  }, 
  {
    "country": "United States", 
    "id": "bd8d37b9028c5b0604bb", 
    "latitude": 40.7282425590861, 
    "locality": "New York", 
    "longitude": -73.9821267127991, 
    "name": "Tompkins Square Bagels", 
    "phone": "6463516520", 
    "postal_code": "10009", 
    "region": "NY", 
    "street_address": "165 Ave. A", 
    "website": "http://tompkinssquarebagels.com"
  }, 
  {
    "country": "United States", 
    "id": "b2f66c391f1f7a0f547c", 
    "latitude": 40.756276, 
    "locality": "New York", 
    "longitude": -73.99367, 
    "name": "Mercato", 
    "phone": "2126432000", 
    "postal_code": "10018", 
    "region": "NY", 
    "street_address": "352 West 39th St.", 
    "website": "http://www.mercatonyc.com/"
  }, 
  {
    "country": "United States", 
    "id": "cc446d6dfcbe80e5f5f2", 
    "latitude": 40.795502, 
    "locality": "New York", 
    "longitude": -73.934303, 
    "name": "Caridad Restaurant", 
    "phone": "9174928600", 
    "postal_code": "", 
    "region": "NY", 
    "street_address": "455 E. 116th St.", 
    "website": ""
  }, 
  {
    "country": "United States", 
    "id": "11b6fd6bb20ac8653ab6", 
    "latitude": 40.713152545191, 
    "locality": "New York", 
    "longitude": -74.0091802624496, 
    "name": "Lenny's Ultimate Sandwich", 
    "phone": "", 
    "postal_code": "10007", 
    "region": "NY", 
    "street_address": "25 Park Pl.", 
    "website": ""
  }, 
  {
    "country": "United States", 
    "id": "6b928dccea745cf00d1a", 
    "latitude": 40.7145660273327, 
    "locality": "New York", 
    "longitude": -73.9902082970545, 
    "name": "One Essex St", 
    "phone": "", 
    "postal_code": "10002", 
    "region": "NY", 
    "street_address": "1 Essex St.", 
    "website": ""
  }, 
  {
    "country": "United States", 
    "id": "6b1cfc7e76fd60dfa30f", 
    "latitude": 40.85949352, 
    "locality": "New York", 
    "longitude": -73.92555942, 
    "name": "Habibi 188th", 
    "phone": "", 
    "postal_code": "", 
    "region": "NY", 
    "street_address": "", 
    "website": ""
  }, 
  {
    "country": "United States", 
    "id": "76887ac6338a82b1b974", 
    "latitude": 40.741984, 
    "locality": "New York", 
    "longitude": -73.9931, 
    "name": "Red Mango", 
    "phone": "2129292313", 
    "postal_code": "", 
    "region": "NY", 
    "street_address": "688 Ave. Of The Americas", 
    "website": ""
  }, 
  {
    "country": "United States", 
    "id": "350f8ba8b43b1e3fe058", 
    "latitude": 40.765331, 
    "locality": "New York", 
    "longitude": -73.983307, 
    "name": "1 Vizio", 
    "phone": "2125860756", 
    "postal_code": "10019", 
    "region": "NY", 
    "street_address": "255 West 55th St.", 
    "website": "http://www.vizio.us"
  }, 
  {
    "country": "United States", 
    "id": "5703f8e400d195471b09", 
    "latitude": 40.790485, 
    "locality": "New York", 
    "longitude": -73.973264, 
    "name": "Saigon Grill", 
    "phone": "2128759072", 
    "postal_code": "10024", 
    "region": "NY", 
    "street_address": "620 Amsterdam Ave.", 
    "website": "http://saigongrillnyc.com"
  }, 
  {
    "country": "United States", 
    "id": "abcd9af02bdb63e5b706", 
    "latitude": 40.804021, 
    "locality": "New York", 
    "longitude": -73.954497, 
    "name": "Nice N Easy Restaurant", 
    "phone": "2125311681", 
    "postal_code": "", 
    "region": "NY", 
    "street_address": "239 W. 116th St.", 
    "website": ""
  }, 
  {
    "country": "United States", 
    "id": "3174f177e44272183c4e", 
    "latitude": 40.759268594767, 
    "locality": "New York", 
    "longitude": -73.9813873581096, 
    "name": "Adel's Famous Halal", 
    "phone": "", 
    "postal_code": "10020", 
    "region": "NY", 
    "street_address": "1221 Ave. Of The Americas", 
    "website": ""
  }, 
  {
    "country": "United States", 
    "id": "a97a8eddbacc93ea0f2d", 
    "latitude": 40.7133170715461, 
    "locality": "New York", 
    "longitude": -74.0123535503784, 
    "name": "Fresh Juice", 
    "phone": "", 
    "postal_code": "", 
    "region": "NY", 
    "street_address": "West Broadway", 
    "website": ""
  }, 
  {
    "country": "United States", 
    "id": "4e43f14919be43ec0cc5", 
    "latitude": 40.7502358940284, 
    "locality": "New York", 
    "longitude": -73.9916372854464, 
    "name": "Club Penn", 
    "phone": "", 
    "postal_code": "", 
    "region": "NY", 
    "street_address": "Penn Station", 
    "website": ""
  }, 
  {
    "country": "United States", 
    "id": "0acb3f7de45a62c5b6a6", 
    "latitude": 40.753622, 
    "locality": "New York", 
    "longitude": -73.973695, 
    "name": "Patroon", 
    "phone": "2128837373", 
    "postal_code": "10017", 
    "region": "NY", 
    "street_address": "160 East 46th St.", 
    "website": "http://www.patroonrestaurant.com"
  }, 
  {
    "country": "United States", 
    "id": "5c7b9ad5d14e55fa6256", 
    "latitude": 40.730145, 
    "locality": "New York", 
    "longitude": -74.004979, 
    "name": "Little Branch", 
    "phone": "2129294360", 
    "postal_code": "10011", 
    "region": "NY", 
    "street_address": "20 7th Ave. South", 
    "website": ""
  }, 
  {
    "country": "United States", 
    "id": "9b18d404d2569d7d65a1", 
    "latitude": 40.753105, 
    "locality": "New York", 
    "longitude": -73.966859, 
    "name": "Beekman Bar & Books", 
    "phone": "2129809314", 
    "postal_code": "10022", 
    "region": "NY", 
    "street_address": "889 1st Ave.", 
    "website": "http://www.barandbooks.net"
  }, 
  {
    "country": "United States", 
    "id": "0ef563913747956bafe5", 
    "latitude": 40.733993, 
    "locality": "New York", 
    "longitude": -73.989284, 
    "name": "Cafe Amore Pizza Restaurant", 
    "phone": "2124208287", 
    "postal_code": "10003", 
    "region": "NY", 
    "street_address": "104 East 14th St.", 
    "website": "http://cafeamoreny.com/"
  }, 
  {
    "country": "United States", 
    "id": "4e3257e67d32f1c01817", 
    "latitude": 40.732347, 
    "locality": "New York", 
    "longitude": -74.001803, 
    "name": "The Slaughtered Lamb Pub", 
    "phone": "2126275262", 
    "postal_code": "10014", 
    "region": "NY", 
    "street_address": "182 West 4th St.", 
    "website": "http://slaughteredlambpub.com/"
  }, 
  {
    "country": "United States", 
    "id": "2ed18bffafebc1855b0e", 
    "latitude": 40.744397, 
    "locality": "New York", 
    "longitude": -73.975954, 
    "name": "Orange Leaf", 
    "phone": "6464612122", 
    "postal_code": "10016", 
    "region": "NY", 
    "street_address": "608 2nd Ave.", 
    "website": "http://www.orangeleafyogurt.com/"
  }, 
  {
    "country": "United States", 
    "id": "fc3952e1c0dbbf0c59da", 
    "latitude": 40.615931, 
    "locality": "New York", 
    "longitude": -73.92992, 
    "name": "China New Star", 
    "phone": "7182536078", 
    "postal_code": "11234", 
    "region": "NY", 
    "street_address": "2212 Flatbush Ave.", 
    "website": ""
  }, 
  {
    "country": "United States", 
    "id": "d1b0e0879c5384859db5", 
    "latitude": 40.867315, 
    "locality": "New York", 
    "longitude": -73.923465, 
    "name": "Hang Lee Chinese Restaurant", 
    "phone": "2129420927", 
    "postal_code": "10034", 
    "region": "NY", 
    "street_address": "666 W. 204th St. # 1", 
    "website": ""
  }, 
  {
    "country": "United States", 
    "id": "4673f7791029df9daa92", 
    "latitude": 40.73488573, 
    "locality": "New York", 
    "longitude": -73.979804, 
    "name": "Coopertown Diner", 
    "phone": "2126777811", 
    "postal_code": "10003", 
    "region": "NY", 
    "street_address": "339 1st Ave.", 
    "website": ""
  }, 
  {
    "country": "United States", 
    "id": "1e7961744277e4c2afa3", 
    "latitude": 40.742094, 
    "locality": "New York", 
    "longitude": -74.001005, 
    "name": "Bareburger", 
    "phone": "2124142273", 
    "postal_code": "10011", 
    "region": "NY", 
    "street_address": "153 8th Ave.", 
    "website": "http://www.bareburger.com/"
  }, 
  {
    "country": "United States", 
    "id": "955a53c2b5acf41697dc", 
    "latitude": 40.752742, 
    "locality": "New York", 
    "longitude": -74.004515, 
    "name": "Ruby Falls", 
    "phone": "2126436464", 
    "postal_code": "10001", 
    "region": "NY", 
    "street_address": "609 W. 29th St.", 
    "website": ""
  }, 
  {
    "country": "United States", 
    "id": "d0b81b8c90a499e99e50", 
    "latitude": 40.718296, 
    "locality": "New York", 
    "longitude": -73.997848, 
    "name": "Akram Restaurant Management", 
    "phone": "2124313934", 
    "postal_code": "10013", 
    "region": "NY", 
    "street_address": "129 Mulberry St.", 
    "website": "http://sangennaro.org"
  }, 
  {
    "country": "United States", 
    "id": "d836e6071753287dacc5", 
    "latitude": 40.7271541, 
    "locality": "New York", 
    "longitude": -73.9999349, 
    "name": "Bar Henry", 
    "phone": "6464484559", 
    "postal_code": "10012", 
    "region": "NY", 
    "street_address": "Bar Henry", 
    "website": "http://www.barhenry.com"
  }, 
  {
    "country": "United States", 
    "id": "1a2175ede4fd709be1df", 
    "latitude": 40.742774, 
    "locality": "New York", 
    "longitude": -73.98247, 
    "name": "Chinese Mirch", 
    "phone": "2125323663", 
    "postal_code": "10016", 
    "region": "NY", 
    "street_address": "120 Lexington Ave.", 
    "website": "http://www.chinesemirch.com/"
  }, 
  {
    "country": "United States", 
    "id": "19dffab1818ae8246987", 
    "latitude": 40.729829, 
    "locality": "New York", 
    "longitude": -73.999091, 
    "name": "Il Mulino - New York", 
    "phone": "2126733783", 
    "postal_code": "10012", 
    "region": "NY", 
    "street_address": "86 West 3rd St.", 
    "website": "http://www.ilmulino.com/"
  }, 
  {
    "country": "United States", 
    "id": "9b68f3aad6b69fc637e7", 
    "latitude": 40.784993, 
    "locality": "New York", 
    "longitude": -73.977158, 
    "name": "Cocina Economica", 
    "phone": "2125017755", 
    "postal_code": "10024", 
    "region": "NY", 
    "street_address": "452 Amsterdam Ave.", 
    "website": "http://www.cocinaeconomicamexico.com/"
  }, 
  {
    "country": "United States", 
    "id": "104f45e4f08f34a535b5", 
    "latitude": 40.7528114573744, 
    "locality": "New York", 
    "longitude": -73.988687474425, 
    "name": "Zaro's Bakery", 
    "phone": "2125757031", 
    "postal_code": "10018", 
    "region": "NY", 
    "street_address": "501 7th Ave.", 
    "website": "http://www.zaro.com/"
  }, 
  {
    "country": "United States", 
    "id": "8ac559b53f3988e8ec0f", 
    "latitude": 40.7204612641503, 
    "locality": "New York", 
    "longitude": -73.9874482154846, 
    "name": "Mason Dixon", 
    "phone": "2122604100", 
    "postal_code": "10002", 
    "region": "NY", 
    "street_address": "133 Essex St.", 
    "website": "http://www.masondixonnyc.com"
  }, 
  {
    "country": "United States", 
    "id": "477036e1544e4389f858", 
    "latitude": 40.7777846549567, 
    "locality": "New York", 
    "longitude": -73.9494231329211, 
    "name": "John's Pancake House", 
    "phone": "", 
    "postal_code": "10028", 
    "region": "NY", 
    "street_address": "345 East 86th St.", 
    "website": ""
  }, 
  {
    "country": "United States", 
    "id": "5a4f7cb01d2c19a8954d", 
    "latitude": 40.694674, 
    "locality": "New York", 
    "longitude": -73.994256, 
    "name": "Andy's Restaurant", 
    "phone": "7182378899", 
    "postal_code": "11201", 
    "region": "NY", 
    "street_address": "128 Montague St.", 
    "website": ""
  }, 
  {
    "country": "United States", 
    "id": "82ed20ecee8882836718", 
    "latitude": 40.762792, 
    "locality": "New York", 
    "longitude": -73.977417, 
    "name": "Tang Pavilion", 
    "phone": "2129566888", 
    "postal_code": "10019", 
    "region": "NY", 
    "street_address": "65 West 55th St.", 
    "website": "http://www.tangpavilionnyc.com/"
  }, 
  {
    "country": "United States", 
    "id": "5bbe103409971d099dfd", 
    "latitude": 40.764204, 
    "locality": "New York", 
    "longitude": -73.970551, 
    "name": "Sale Pepe Delicatessen and Pizza", 
    "phone": "8008946095", 
    "postal_code": "", 
    "region": "NY", 
    "street_address": "43 E. 60th St.", 
    "website": ""
  }, 
  {
    "country": "United States", 
    "id": "6caca002a8a26b81c1c6", 
    "latitude": 40.761119, 
    "locality": "New York", 
    "longitude": -73.997891, 
    "name": "Rancho Fabuloso", 
    "phone": "", 
    "postal_code": "10036", 
    "region": "NY", 
    "street_address": "", 
    "website": ""
  }, 
  {
    "country": "United States", 
    "id": "36271a4fbce4cd269ed3", 
    "latitude": 40.7616741319278, 
    "locality": "New York", 
    "longitude": -73.9857835305744, 
    "name": "Luckyrice Sunset Luau", 
    "phone": "", 
    "postal_code": "10014", 
    "region": "NY", 
    "street_address": "", 
    "website": ""
  }, 
  {
    "country": "United States", 
    "id": "1284cc43bc3956f88b8e", 
    "latitude": 40.7138331980139, 
    "locality": "New York", 
    "longitude": -74.0098286962727, 
    "name": "Back Forty South east", 
    "phone": "", 
    "postal_code": "10007", 
    "region": "NY", 
    "street_address": "50 Murray St.", 
    "website": ""
  }, 
  {
    "country": "United States", 
    "id": "b2964f8bcd92007a0cbf", 
    "latitude": 40.736431, 
    "locality": "New York", 
    "longitude": -73.979794, 
    "name": "Broken Cup Cafe", 
    "phone": "2124735002", 
    "postal_code": "10010", 
    "region": "NY", 
    "street_address": "342 E. 22nd St.", 
    "website": ""
  }, 
  {
    "country": "United States", 
    "id": "df71328929cf56d47a42", 
    "latitude": 40.7310442393578, 
    "locality": "New York", 
    "longitude": -73.9935368479115, 
    "name": "H\u00e4agen-Dazs", 
    "phone": "2127772477", 
    "postal_code": "10003", 
    "region": "NY", 
    "street_address": "55 E. 8th St.", 
    "website": ""
  }, 
  {
    "country": "United States", 
    "id": "cb300b3ea9b84fbbabd8", 
    "latitude": 40.720431, 
    "locality": "New York", 
    "longitude": -73.997967, 
    "name": "Rawlicious", 
    "phone": "6479944656", 
    "postal_code": "10012", 
    "region": "NY", 
    "street_address": "249 Centre St.", 
    "website": "http://www.rawlicioususa.com"
  }, 
  {
    "country": "United States", 
    "id": "f6a3e766ddb5ea89b86f", 
    "latitude": 40.755644, 
    "locality": "New York", 
    "longitude": -73.99172, 
    "name": "Rinconcito Mexicano", 
    "phone": "2122681704", 
    "postal_code": "10018", 
    "region": "NY", 
    "street_address": "307 West 39th St.", 
    "website": ""
  }, 
  {
    "country": "United States", 
    "id": "fa3be47a0a588c37d41a", 
    "latitude": 40.7366819311925, 
    "locality": "New York", 
    "longitude": -74.0043083309339, 
    "name": "Hog Mansion", 
    "phone": "", 
    "postal_code": "", 
    "region": "NY", 
    "street_address": "", 
    "website": ""
  }, 
  {
    "country": "United States", 
    "id": "a3ff518ecb04360f7382", 
    "latitude": 40.740956, 
    "locality": "New York", 
    "longitude": -73.979993, 
    "name": "41 E 20th St", 
    "phone": "", 
    "postal_code": "10010", 
    "region": "NY", 
    "street_address": "41 E. 20th St.", 
    "website": ""
  }, 
  {
    "country": "United States", 
    "id": "6d0591355bdc0f96590f", 
    "latitude": 40.709928, 
    "locality": "New York", 
    "longitude": -74.007969, 
    "name": "Kortako", 
    "phone": "2129644625", 
    "postal_code": "10038", 
    "region": "NY", 
    "street_address": "80 Nassau St.", 
    "website": "http://www.kortako.com/"
  }, 
  {
    "country": "United States", 
    "id": "2aa13285309e48c6b531", 
    "latitude": 40.733896, 
    "locality": "New York", 
    "longitude": -73.994067, 
    "name": "Brett And Kennys House Of Debauchery", 
    "phone": "", 
    "postal_code": "10003", 
    "region": "NY", 
    "street_address": "", 
    "website": ""
  }, 
  {
    "country": "United States", 
    "id": "39e0571518e74bd79ad6", 
    "latitude": 40.716883, 
    "locality": "New York", 
    "longitude": -74.007862, 
    "name": "The Odeon", 
    "phone": "2122330507", 
    "postal_code": "10013", 
    "region": "NY", 
    "street_address": "145 W. Broadway", 
    "website": "http://www.theodeonrestaurant.com"
  }, 
  {
    "country": "United States", 
    "id": "f92656a04b67d417eef7", 
    "latitude": 40.746096, 
    "locality": "New York", 
    "longitude": -74.001392, 
    "name": "Chelsea Cottage's Viet Grill", 
    "phone": "2123664881", 
    "postal_code": "10011", 
    "region": "NY", 
    "street_address": "206 9th Ave.", 
    "website": "http://www.chelseacottagechinese.com/"
  }, 
  {
    "country": "United States", 
    "id": "f1400fcb53b34082ba46", 
    "latitude": 40.75698, 
    "locality": "New York", 
    "longitude": -73.97624, 
    "name": "Au Croissant and Gourmet", 
    "phone": "2127506970", 
    "postal_code": "", 
    "region": "NY", 
    "street_address": "425 Madison Ave.", 
    "website": ""
  }, 
  {
    "country": "United States", 
    "id": "5be1bd273d63881550c7", 
    "latitude": 40.719095, 
    "locality": "New York", 
    "longitude": -73.990714, 
    "name": "Berkli Parc Cafe", 
    "phone": "2129662737", 
    "postal_code": "10002", 
    "region": "NY", 
    "street_address": "63 Delancey St.", 
    "website": "http://berkliparc.com/"
  }, 
  {
    "country": "United States", 
    "id": "e576bc89e1d447373d02", 
    "latitude": 40.764477, 
    "locality": "New York", 
    "longitude": -73.96711, 
    "name": "David Burke Fishtail ", 
    "phone": "2127541300", 
    "postal_code": "10065", 
    "region": "NY", 
    "street_address": "135 E. 62nd St.", 
    "website": "http://www.fishtaildb.com/"
  }, 
  {
    "country": "United States", 
    "id": "15f2088e5edd66e98ffd", 
    "latitude": 40.853385425, 
    "locality": "New York", 
    "longitude": -73.93534115, 
    "name": "Techcrunch Disrupt - Red Bull Lounge", 
    "phone": "8776739444", 
    "postal_code": "10014", 
    "region": "NY", 
    "street_address": "570 Washington", 
    "website": ""
  }, 
  {
    "country": "United States", 
    "id": "7c9f8c9cd8b93b4d9565", 
    "latitude": 40.750715383357, 
    "locality": "New York", 
    "longitude": -73.9871149885438, 
    "name": "Herald Square Market", 
    "phone": "2122443484", 
    "postal_code": "10018", 
    "region": "NY", 
    "street_address": "968 Ave. Of The Americas", 
    "website": ""
  }, 
  {
    "country": "United States", 
    "id": "cda3084354d19b6e7a95", 
    "latitude": 40.747917, 
    "locality": "New York", 
    "longitude": -73.991619, 
    "name": "Nyart Studios", 
    "phone": "2126958641", 
    "postal_code": "", 
    "region": "NY", 
    "street_address": "140 W. 30th St.", 
    "website": ""
  }, 
  {
    "country": "United States", 
    "id": "596109fd6c5e19dc914a", 
    "latitude": 40.72448, 
    "locality": "New York", 
    "longitude": -73.99428, 
    "name": "La Cocina Deli Grocery", 
    "phone": "2122198084", 
    "postal_code": "", 
    "region": "NY", 
    "street_address": "55 E. Houston St.", 
    "website": ""
  }, 
  {
    "country": "United States", 
    "id": "a3e11eee91861729f54b", 
    "latitude": 40.8094769153748, 
    "locality": "New York", 
    "longitude": -73.9591409556647, 
    "name": "Apple Tree Supermarket", 
    "phone": "2128658840", 
    "postal_code": "10027", 
    "region": "NY", 
    "street_address": "1225 Amsterdam Ave.", 
    "website": "http://theappletreemarket.com/"
  }, 
  {
    "country": "United States", 
    "id": "44b6f8bffbadae7c2a87", 
    "latitude": 40.7464, 
    "locality": "New York", 
    "longitude": -74.000884, 
    "name": "Brats: Dogs & Wieners", 
    "phone": "6463502557", 
    "postal_code": "10011", 
    "region": "NY", 
    "street_address": "362 W. 23rd St.", 
    "website": ""
  }, 
  {
    "country": "United States", 
    "id": "eebd811650351785ccfa", 
    "latitude": 40.7168831458104, 
    "locality": "New York", 
    "longitude": -73.9968136924018, 
    "name": "New XO Taste", 
    "phone": "2123438339", 
    "postal_code": "10013", 
    "region": "NY", 
    "street_address": "41 Elizabeth St.", 
    "website": ""
  }, 
  {
    "country": "United States", 
    "id": "cc1ff8ee6421d134ad85", 
    "latitude": 40.756568, 
    "locality": "New York", 
    "longitude": -73.977764, 
    "name": "C'Est Bon Cafe", 
    "phone": "2123196680", 
    "postal_code": "10017", 
    "region": "NY", 
    "street_address": "5 E. 47th St. # A", 
    "website": ""
  }, 
  {
    "country": "United States", 
    "id": "630aa5bd157a87279361", 
    "latitude": 40.7172193924649, 
    "locality": "New York", 
    "longitude": -73.9944435810639, 
    "name": "New Kim Tuong", 
    "phone": "2129662878", 
    "postal_code": "10002", 
    "region": "NY", 
    "street_address": "83 Chrystie St.", 
    "website": ""
  }, 
  {
    "country": "United States", 
    "id": "5c436c7c52be69f29f33", 
    "latitude": 40.7826156616211, 
    "locality": "New York", 
    "longitude": -73.9817657470703, 
    "name": "Red Window", 
    "phone": "", 
    "postal_code": "10023", 
    "region": "NY", 
    "street_address": "268 W. 77th St., New York, Ny 10023", 
    "website": ""
  }, 
  {
    "country": "United States", 
    "id": "0d833dceb82bf105f92b", 
    "latitude": 40.742711, 
    "locality": "New York", 
    "longitude": -74.005701, 
    "name": "Cleaver Co.", 
    "phone": "2127419174", 
    "postal_code": "10011", 
    "region": "NY", 
    "street_address": "75 Ninth Ave.", 
    "website": "http://www.cleaverco.com/"
  }, 
  {
    "country": "United States", 
    "id": "65fccda134c35cb82444", 
    "latitude": 40.729474, 
    "locality": "New York", 
    "longitude": -73.987258, 
    "name": "Kingston Hall", 
    "phone": "2126732663", 
    "postal_code": "10003", 
    "region": "NY", 
    "street_address": "149 2nd Ave.", 
    "website": "http://www.kingstonhall.com/"
  }, 
  {
    "country": "United States", 
    "id": "075db1a8fa6a5527566b", 
    "latitude": 40.750228, 
    "locality": "New York", 
    "longitude": -73.983714, 
    "name": "Ai Fiori", 
    "phone": "2126138660", 
    "postal_code": "10018", 
    "region": "NY", 
    "street_address": "400 5th Ave.", 
    "website": "http://www.aifiorinyc.com/"
  }, 
  {
    "country": "United States", 
    "id": "7a52aaeea550dc85a17f", 
    "latitude": 40.735253, 
    "locality": "New York", 
    "longitude": -73.979928, 
    "name": "Bangkok 2", 
    "phone": "2124734480", 
    "postal_code": "10010", 
    "region": "NY", 
    "street_address": "349 1st Ave.", 
    "website": "http://bangkokexpressnyc.com/food-delivery-TW/Bangkok-2-Thai-Manhattan-Consumer.9953.r?QueryStringValue=vNYMji/X7KTwK3byK/p6aA=="
  }, 
  {
    "country": "United States", 
    "id": "7adabc0b3761f35b6473", 
    "latitude": 40.755586, 
    "locality": "New York", 
    "longitude": -73.97207, 
    "name": "Manhattan Espresso Cafe", 
    "phone": "2128323010", 
    "postal_code": "10017", 
    "region": "NY", 
    "street_address": "146 East 49th St.", 
    "website": "http://www.manhattanespressocafe.com"
  }, 
  {
    "country": "United States", 
    "id": "06433edd4c0565bfb9f0", 
    "latitude": 40.736018, 
    "locality": "New York", 
    "longitude": -73.979179, 
    "name": "Frank's Trattoria", 
    "phone": "2126772991", 
    "postal_code": "10010", 
    "region": "NY", 
    "street_address": "371 First Ave.", 
    "website": "http://www.franksonfirst.com"
  }, 
  {
    "country": "United States", 
    "id": "9b50a74bd140ff359fe3", 
    "latitude": 40.7412796020508, 
    "locality": "New York", 
    "longitude": -73.9988555908203, 
    "name": "Great Gyro Truck", 
    "phone": "", 
    "postal_code": "10011", 
    "region": "NY", 
    "street_address": "17th St.", 
    "website": ""
  }, 
  {
    "country": "United States", 
    "id": "29f92c6d74ccb29d9cfd", 
    "latitude": 40.75386, 
    "locality": "New York", 
    "longitude": -73.974129, 
    "name": "99 Cent Fresh Pizza", 
    "phone": "2126616221", 
    "postal_code": "10017", 
    "region": "NY", 
    "street_address": "473 Lexington Ave.", 
    "website": ""
  }, 
  {
    "country": "United States", 
    "id": "ff36b72b494865f94905", 
    "latitude": 40.738095, 
    "locality": "New York", 
    "longitude": -73.981777, 
    "name": "Oriental Kitchen", 
    "phone": "2124812225", 
    "postal_code": "10010", 
    "region": "NY", 
    "street_address": "236 East 23rd St.", 
    "website": ""
  }, 
  {
    "country": "United States", 
    "id": "d35a48610ad96106ccc1", 
    "latitude": 40.735464, 
    "locality": "New York", 
    "longitude": -73.986208, 
    "name": "Corbet & Conley", 
    "phone": "2129823939", 
    "postal_code": "10003", 
    "region": "NY", 
    "street_address": "145 East 17th St.", 
    "website": "http://www.corbetconley.com/"
  }, 
  {
    "country": "United States", 
    "id": "df3557a97755938400a0", 
    "latitude": 40.753685, 
    "locality": "New York", 
    "longitude": -73.992392, 
    "name": "Subway", 
    "phone": "2125646454", 
    "postal_code": "10018", 
    "region": "NY", 
    "street_address": "525 Eighth Ave.", 
    "website": "http://www.subway.com/"
  }, 
  {
    "country": "United States", 
    "id": "79f32ec061f18fd204ac", 
    "latitude": 40.736317, 
    "locality": "New York", 
    "longitude": -73.996523, 
    "name": "Grape & Vine", 
    "phone": "2123004525", 
    "postal_code": "10011", 
    "region": "NY", 
    "street_address": "52 W. 13th Street", 
    "website": "http://grapeandvinenyc.com/"
  }, 
  {
    "country": "United States", 
    "id": "698e79a51d08fab50d44", 
    "latitude": 40.719077, 
    "locality": "New York", 
    "longitude": -74.0066267888889, 
    "name": "Franklin Caf\u00e9 Tavola Calda", 
    "phone": "2126258833", 
    "postal_code": "10013", 
    "region": "NY", 
    "street_address": "222 W. Broadway", 
    "website": "http://www.franklinstationcafe.com"
  }, 
  {
    "country": "United States", 
    "id": "806419f454f9c6dba077", 
    "latitude": 40.7630628632604, 
    "locality": "New York", 
    "longitude": -73.9829885866209, 
    "name": "Crumbs Bake Shop", 
    "phone": "2123993100", 
    "postal_code": "10019", 
    "region": "NY", 
    "street_address": "1675 Broadway", 
    "website": "http://www.crumbs.com"
  }, 
  {
    "country": "United States", 
    "id": "9825b1c9e0eeaebd03a6", 
    "latitude": 40.759954, 
    "locality": "New York", 
    "longitude": -73.982845, 
    "name": "Ali's Coffee Cart", 
    "phone": "", 
    "postal_code": "", 
    "region": "NY", 
    "street_address": "49th St.", 
    "website": ""
  }, 
  {
    "country": "United States", 
    "id": "ac78a4b290c4cfd4b6f0", 
    "latitude": 40.7777528, 
    "locality": "New York", 
    "longitude": -73.9785728, 
    "name": "A.G. Kitchen", 
    "phone": "", 
    "postal_code": "10023", 
    "region": "NY", 
    "street_address": "A.g. Kitchen", 
    "website": ""
  }, 
  {
    "country": "United States", 
    "id": "5faf1c1f5787c97f58d7", 
    "latitude": 40.728849, 
    "locality": "New York", 
    "longitude": -73.984161, 
    "name": "Zarzara", 
    "phone": "2124771111", 
    "postal_code": "10009", 
    "region": "NY", 
    "street_address": "166 1st Ave.", 
    "website": "http://www.lazarzanyc.com/"
  }, 
  {
    "country": "United States", 
    "id": "0627281dc3b59e45b6be", 
    "latitude": 40.728894, 
    "locality": "New York", 
    "longitude": -74.0049, 
    "name": "La Camelia Mexican Cuisine", 
    "phone": "2126757060", 
    "postal_code": "10014", 
    "region": "NY", 
    "street_address": "64 Downing St.", 
    "website": "http://www.lacamelianyc.com/"
  }, 
  {
    "country": "United States", 
    "id": "20691103be53cd1fd72f", 
    "latitude": 40.7571912477128, 
    "locality": "New York", 
    "longitude": -73.9862828283949, 
    "name": "2 Brothers Pizza", 
    "phone": "", 
    "postal_code": "10065", 
    "region": "NY", 
    "street_address": "329-331 E. 65th St.", 
    "website": ""
  }, 
  {
    "country": "United States", 
    "id": "5bfa5dc54378a9b287a9", 
    "latitude": 40.7680942116878, 
    "locality": "New York", 
    "longitude": -73.9647674560547, 
    "name": "Starbucks", 
    "phone": "", 
    "postal_code": "10065", 
    "region": "NY", 
    "street_address": "695 Park Ave.", 
    "website": ""
  }, 
  {
    "country": "United States", 
    "id": "55431ec48e9889699aa0", 
    "latitude": 40.724174, 
    "locality": "New York", 
    "longitude": -73.987985, 
    "name": "New Double Dragon", 
    "phone": "2125980730", 
    "postal_code": "10003", 
    "region": "NY", 
    "street_address": "37 1st Ave.", 
    "website": "http://www.newdoubledragonnyc.com/"
  }, 
  {
    "country": "United States", 
    "id": "c3356e1302659c05aaff", 
    "latitude": 40.7563925089765, 
    "locality": "New York", 
    "longitude": -73.9932326896279, 
    "name": "Bob's Backyard BBQ", 
    "phone": "", 
    "postal_code": "10018", 
    "region": "NY", 
    "street_address": "", 
    "website": ""
  }, 
  {
    "country": "United States", 
    "id": "f266d9f13966b658f454", 
    "latitude": 40.781226, 
    "locality": "New York", 
    "longitude": -73.960347, 
    "name": "Caf\u00e9 Fledermaus", 
    "phone": "2122880665", 
    "postal_code": "10028", 
    "region": "NY", 
    "street_address": "1048 5th Ave.", 
    "website": "http://kg-ny.com/"
  }, 
  {
    "country": "United States", 
    "id": "d72a3e94d79e9ec1474d", 
    "latitude": 40.750314, 
    "locality": "New York", 
    "longitude": -73.97745515, 
    "name": "Likeable Book Meetup!", 
    "phone": "", 
    "postal_code": "", 
    "region": "NY", 
    "street_address": "", 
    "website": ""
  }, 
  {
    "country": "United States", 
    "id": "3cd0ffacd4d96deb4171", 
    "latitude": 40.760645, 
    "locality": "New York", 
    "longitude": -73.962325, 
    "name": "Sapphire New York", 
    "phone": "2124213600", 
    "postal_code": "10022", 
    "region": "NY", 
    "street_address": "333 East 60th St.", 
    "website": "http://www.nysapphire.com/"
  }, 
  {
    "country": "United States", 
    "id": "93012ba72a669bdcda40", 
    "latitude": 40.7215151743136, 
    "locality": "New York", 
    "longitude": -74.0046583796203, 
    "name": "Everyman Espresso", 
    "phone": "", 
    "postal_code": "10013", 
    "region": "NY", 
    "street_address": "301 W. Broadway", 
    "website": ""
  }, 
  {
    "country": "United States", 
    "id": "3628d932c8617afb4423", 
    "latitude": 40.729564, 
    "locality": "New York", 
    "longitude": -73.958552, 
    "name": "Paulie Gee's", 
    "phone": "3479873747", 
    "postal_code": "11222", 
    "region": "NY", 
    "street_address": "60 Greenpoint Ave.", 
    "website": "http://www.pauliegee.com/"
  }, 
  {
    "country": "United States", 
    "id": "cdcfdc8eb8e547eb5681", 
    "latitude": 40.755755, 
    "locality": "New York", 
    "longitude": -73.982584, 
    "name": "Aloha 44", 
    "phone": "2123541556", 
    "postal_code": "", 
    "region": "NY", 
    "street_address": "67 W. 44th St.", 
    "website": ""
  }, 
  {
    "country": "United States", 
    "id": "54592542bbf2bc309f27", 
    "latitude": 40.719687, 
    "locality": "New York", 
    "longitude": -73.987162, 
    "name": "Kicking It With Radiohead", 
    "phone": "", 
    "postal_code": "", 
    "region": "NY", 
    "street_address": "", 
    "website": ""
  }, 
  {
    "country": "United States", 
    "id": "e1faa7244cae67e39931", 
    "latitude": 40.7429738, 
    "locality": "New York", 
    "longitude": -73.9841056, 
    "name": "McDonald's", 
    "phone": "2126834919", 
    "postal_code": "10016", 
    "region": "NY", 
    "street_address": "401 Park Ave. S.", 
    "website": "http://www.mcstate.com/14971"
  }, 
  {
    "country": "United States", 
    "id": "e7b8e41332768bfd6af6", 
    "latitude": 40.75338, 
    "locality": "New York", 
    "longitude": -73.986836, 
    "name": "Hale Hearty Soup", 
    "phone": "2123541199", 
    "postal_code": "10018", 
    "region": "NY", 
    "street_address": "1410 Broadway", 
    "website": "http://www.haleandhearty.com/"
  }, 
  {
    "country": "United States", 
    "id": "faacb8f78a136f87a7a3", 
    "latitude": 40.7741140939317, 
    "locality": "New York", 
    "longitude": -73.9486022903057, 
    "name": "Mumtaz", 
    "phone": "2128794797", 
    "postal_code": "10028", 
    "region": "NY", 
    "street_address": "1493 3rd Ave.", 
    "website": ""
  }, 
  {
    "country": "United States", 
    "id": "3a2123a1b8116060ac2d", 
    "latitude": 40.76290372, 
    "locality": "New York", 
    "longitude": -73.99302329, 
    "name": "Moroccan Grill", 
    "phone": "2125822609", 
    "postal_code": "10036", 
    "region": "NY", 
    "street_address": "691 10th Ave.", 
    "website": ""
  }, 
  {
    "country": "United States", 
    "id": "34b2cd6ecd7ab51faedb", 
    "latitude": 40.7814, 
    "locality": "New York", 
    "longitude": -73.9525, 
    "name": "Carnegie Hill Brewing Co.", 
    "phone": "2123690808", 
    "postal_code": "10128", 
    "region": "NY", 
    "street_address": "1600 Third Ave.", 
    "website": ""
  }, 
  {
    "country": "United States", 
    "id": "0cd987053c04404e4b3f", 
    "latitude": 40.7472600712908, 
    "locality": "New York", 
    "longitude": -73.9851407544573, 
    "name": "Pan", 
    "phone": "2126790770", 
    "postal_code": "10016", 
    "region": "NY", 
    "street_address": "319 5th Ave.", 
    "website": ""
  }, 
  {
    "country": "United States", 
    "id": "fcb535c4e67b04fb4eab", 
    "latitude": 40.722928, 
    "locality": "New York", 
    "longitude": -73.989163, 
    "name": "Macondo", 
    "phone": "2124739900", 
    "postal_code": "10002", 
    "region": "NY", 
    "street_address": "157 E. Houston St.", 
    "website": "http://www.macondonyc.com/about.php"
  }, 
  {
    "country": "United States", 
    "id": "d2521ba3727eda726457", 
    "latitude": 40.724003, 
    "locality": "New York", 
    "longitude": -73.990174, 
    "name": "East Village Yacht Club", 
    "phone": "2127775617", 
    "postal_code": "10003", 
    "region": "NY", 
    "street_address": "42 E. 1st St.", 
    "website": "http://evyc.com"
  }, 
  {
    "country": "United States", 
    "id": "359d66f309c4cbbfe01d", 
    "latitude": 40.734498, 
    "locality": "New York", 
    "longitude": -73.991868, 
    "name": "Bar 13", 
    "phone": "2129796677", 
    "postal_code": "10003", 
    "region": "NY", 
    "street_address": "35 East 13th St.", 
    "website": "http://www.bar13.com/"
  }, 
  {
    "country": "United States", 
    "id": "78d662a3f5bad9d3b899", 
    "latitude": 40.8054140642007, 
    "locality": "New York", 
    "longitude": -73.9502382319298, 
    "name": "Harlem's Finest Mini Market", 
    "phone": "", 
    "postal_code": "10027", 
    "region": "NY", 
    "street_address": "2001 Adam Clayton Powell, Jr. Blvd.", 
    "website": ""
  }, 
  {
    "country": "United States", 
    "id": "8a2e6880ea0a3045799c", 
    "latitude": 40.682383, 
    "locality": "New York", 
    "longitude": -73.993535, 
    "name": "Bar Great Harry", 
    "phone": "7182221103", 
    "postal_code": "11231", 
    "region": "NY", 
    "street_address": "280 Smith St.", 
    "website": "http://www.bargreatharry.com/"
  }, 
  {
    "country": "United States", 
    "id": "0faffbd13fb7ac89e88f", 
    "latitude": 40.7114143371582, 
    "locality": "New York", 
    "longitude": -73.9949340820312, 
    "name": "Studio 31", 
    "phone": "", 
    "postal_code": "10002", 
    "region": "NY", 
    "street_address": "", 
    "website": ""
  }, 
  {
    "country": "United States", 
    "id": "006b18ff3990337edc5b", 
    "latitude": 40.739794, 
    "locality": "New York", 
    "longitude": -73.979801, 
    "name": "Deli Superette", 
    "phone": "", 
    "postal_code": "", 
    "region": "NY", 
    "street_address": "", 
    "website": ""
  }, 
  {
    "country": "United States", 
    "id": "da1d5d1fea528ce52c45", 
    "latitude": 40.7198295593262, 
    "locality": "New York", 
    "longitude": -73.9864807128906, 
    "name": "Kelle's Blue Van", 
    "phone": "", 
    "postal_code": "10002", 
    "region": "NY", 
    "street_address": "", 
    "website": ""
  }, 
  {
    "country": "United States", 
    "id": "1f11c3331ceb799b16ef", 
    "latitude": 40.79801, 
    "locality": "New York", 
    "longitude": -73.969037, 
    "name": "Broadway Restaurant", 
    "phone": "2128657074", 
    "postal_code": "10025", 
    "region": "NY", 
    "street_address": "2664 Broadway", 
    "website": ""
  }, 
  {
    "country": "United States", 
    "id": "3b6f9f54cae945530274", 
    "latitude": 40.724217864944, 
    "locality": "New York", 
    "longitude": -73.9978122711182, 
    "name": "Alex & Debbie's Bakery", 
    "phone": "6193000681", 
    "postal_code": "10012", 
    "region": "NY", 
    "street_address": "568 Broadway", 
    "website": ""
  }, 
  {
    "country": "United States", 
    "id": "206e16759a01f547c53b", 
    "latitude": 40.86431, 
    "locality": "New York", 
    "longitude": -73.891766, 
    "name": "Fu Wang Chinese Restaurant", 
    "phone": "7189330504", 
    "postal_code": "10458", 
    "region": "NY", 
    "street_address": "314 East 194th St.", 
    "website": ""
  }, 
  {
    "country": "United States", 
    "id": "ef07de7929a73a7c9e9e", 
    "latitude": 40.7356911745627, 
    "locality": "New York", 
    "longitude": -73.9740066127084, 
    "name": "New York Health & Racquet Club Yacht", 
    "phone": "2122200646", 
    "postal_code": "10010", 
    "region": "NY", 
    "street_address": "East 23rd St.", 
    "website": ""
  }, 
  {
    "country": "United States", 
    "id": "c6e1b64035c999dd8964", 
    "latitude": 40.7771594935425, 
    "locality": "New York", 
    "longitude": -73.9523678053724, 
    "name": "Molly Pitcher's Ale House", 
    "phone": "2122493068", 
    "postal_code": "10028", 
    "region": "NY", 
    "street_address": "1641 2nd Ave.", 
    "website": "http://mollypitchersnyc.com"
  }, 
  {
    "country": "United States", 
    "id": "5ca8fc42f365d2a6caa7", 
    "latitude": 40.741800069809, 
    "locality": "New York", 
    "longitude": -73.997586, 
    "name": "Fruit Stand 18th & 7th", 
    "phone": "", 
    "postal_code": "10011", 
    "region": "NY", 
    "street_address": "", 
    "website": ""
  }, 
  {
    "country": "United States", 
    "id": "d7aee3fbfc06d68737fa", 
    "latitude": 40.805976, 
    "locality": "New York", 
    "longitude": -73.941589, 
    "name": "Uptown Veg Juice Bar", 
    "phone": "2129872660", 
    "postal_code": "10035", 
    "region": "NY", 
    "street_address": "14 East 125th St.", 
    "website": "http://www.uptownveg.com"
  }, 
  {
    "country": "United States", 
    "id": "9ad3e3cb26a571ddfc1f", 
    "latitude": 40.8011125684566, 
    "locality": "New York", 
    "longitude": -73.9447161559502, 
    "name": "117 Deli Grocery", 
    "phone": "", 
    "postal_code": "10026", 
    "region": "NY", 
    "street_address": "1782 Madison Avenu", 
    "website": ""
  }, 
  {
    "country": "United States", 
    "id": "43a1d8653a07e6847aa2", 
    "latitude": 40.7722620383529, 
    "locality": "New York", 
    "longitude": -73.9830976303711, 
    "name": "L'Arte Del Gelato", 
    "phone": "", 
    "postal_code": "10023", 
    "region": "NY", 
    "street_address": "Lincoln Center Plaza", 
    "website": ""
  }, 
  {
    "country": "United States", 
    "id": "353707e5b16415724def", 
    "latitude": 40.7381137229069, 
    "locality": "New York", 
    "longitude": -74.0019670052254, 
    "name": "Benny's Burritos", 
    "phone": "2127270584", 
    "postal_code": "10011", 
    "region": "NY", 
    "street_address": "113 Greenwich Ave.", 
    "website": "http://blockheads.com"
  }, 
  {
    "country": "United States", 
    "id": "aa0d24e7f2292b74363c", 
    "latitude": 40.740043, 
    "locality": "New York", 
    "longitude": -73.993082, 
    "name": "Sala One Nine", 
    "phone": "2122292300", 
    "postal_code": "10011", 
    "region": "NY", 
    "street_address": "35 West 19th St.", 
    "website": "http://www.salaonenine.com"
  }, 
  {
    "country": "United States", 
    "id": "24ceebcc77719a0e4b66", 
    "latitude": 40.746082, 
    "locality": "New York", 
    "longitude": -73.979371, 
    "name": "Dunkin' Donuts", 
    "phone": "2124812905", 
    "postal_code": "10016", 
    "region": "NY", 
    "street_address": "140 East 34th St.", 
    "website": "http://www.dunkindonuts.com/"
  }, 
  {
    "country": "United States", 
    "id": "9f699000f89aff4aa5b0", 
    "latitude": 40.72682, 
    "locality": "New York", 
    "longitude": -73.991783, 
    "name": "Antik", 
    "phone": "2123881655", 
    "postal_code": "10012", 
    "region": "NY", 
    "street_address": "356 Bowery", 
    "website": "http://www.antiknyc.com/"
  }, 
  {
    "country": "United States", 
    "id": "e7e7aace21c20727e007", 
    "latitude": 40.75922, 
    "locality": "New York", 
    "longitude": -73.984412, 
    "name": "Tad's", 
    "phone": "2123821164", 
    "postal_code": "10036", 
    "region": "NY", 
    "street_address": "701 7th Ave. #2", 
    "website": "http://www.tads.com"
  }, 
  {
    "country": "United States", 
    "id": "b079cc58b82eda044a7d", 
    "latitude": 40.732085, 
    "locality": "New York", 
    "longitude": -74.00145, 
    "name": "Mary's Dairy", 
    "phone": "2122426874", 
    "postal_code": "10014", 
    "region": "NY", 
    "street_address": "171 W. 4th St.", 
    "website": ""
  }, 
  {
    "country": "United States", 
    "id": "13427dd2d04924644376", 
    "latitude": 40.755959, 
    "locality": "New York", 
    "longitude": -73.990286, 
    "name": "Inakaya", 
    "phone": "2123542195", 
    "postal_code": "10018", 
    "region": "NY", 
    "street_address": "620 8th Ave. (Aka: 231 West 40th St.)", 
    "website": "http://www.inakayany.com"
  }, 
  {
    "country": "United States", 
    "id": "300653a41a7cd9c8eeeb", 
    "latitude": 40.8252647546757, 
    "locality": "New York", 
    "longitude": -73.9496584787624, 
    "name": "Majestic Deli", 
    "phone": "2129262222", 
    "postal_code": "10031", 
    "region": "NY", 
    "street_address": "3520 Broadway", 
    "website": ""
  }, 
  {
    "country": "United States", 
    "id": "3fc309fe13682e654bad", 
    "latitude": 40.763645, 
    "locality": "New York", 
    "longitude": -73.969321, 
    "name": "Starbucks", 
    "phone": "", 
    "postal_code": "10021", 
    "region": "NY", 
    "street_address": "58th St.", 
    "website": ""
  }, 
  {
    "country": "United States", 
    "id": "80f7e07fca699f32b25e", 
    "latitude": 40.7101097106934, 
    "locality": "New York", 
    "longitude": -74.0004501342773, 
    "name": "Le Maison de Mama's Fusion Origins", 
    "phone": "", 
    "postal_code": "10038", 
    "region": "NY", 
    "street_address": "", 
    "website": ""
  }, 
  {
    "country": "United States", 
    "id": "ce666c2ac3cc963f2aee", 
    "latitude": 40.742310655746, 
    "locality": "New York", 
    "longitude": -73.9840216301916, 
    "name": "Baskin-Robbins", 
    "phone": "2122280442", 
    "postal_code": "10003", 
    "region": "NY", 
    "street_address": "243 3rd Ave.", 
    "website": "http://www.baskinrobbins.com"
  }, 
  {
    "country": "United States", 
    "id": "049d2ddf26c4c90a9f02", 
    "latitude": 40.709252, 
    "locality": "New York", 
    "longitude": -74.011902, 
    "name": "Original Soupman", 
    "phone": "2125667400", 
    "postal_code": "10006", 
    "region": "NY", 
    "street_address": "97 Trinity Pl.", 
    "website": "http://www.originalsoupman.com"
  }, 
  {
    "country": "United States", 
    "id": "ca350fc3c77e8ba6ff6c", 
    "latitude": 40.858789, 
    "locality": "New York", 
    "longitude": -73.905285, 
    "name": "Sorellas Pizzeria & Restaurant", 
    "phone": "7183650500", 
    "postal_code": "10468", 
    "region": "NY", 
    "street_address": "34 West 183rd St.", 
    "website": "http://sorellaspizzeriarestaurant.com/"
  }, 
  {
    "country": "United States", 
    "id": "8cb8fb4d95982d807012", 
    "latitude": 40.731136, 
    "locality": "New York", 
    "longitude": -74.002943, 
    "name": "Sushi Mambo", 
    "phone": "2126755885", 
    "postal_code": "10014", 
    "region": "NY", 
    "street_address": "255 Bleecker St.", 
    "website": "http://sushimambo.com\u200e"
  }, 
  {
    "country": "United States", 
    "id": "c0515e8d0ffbd5bf732c", 
    "latitude": 40.7386093139648, 
    "locality": "New York", 
    "longitude": -73.9900360107422, 
    "name": "Marky Ramone's Cruisin' Kitchen", 
    "phone": "", 
    "postal_code": "10003", 
    "region": "NY", 
    "street_address": "", 
    "website": ""
  }, 
  {
    "country": "United States", 
    "id": "8fe6c10d82436c7858c6", 
    "latitude": 40.8143594841291, 
    "locality": "New York", 
    "longitude": -73.94070365469, 
    "name": "Palomino Truck", 
    "phone": "", 
    "postal_code": "10030", 
    "region": "NY", 
    "street_address": "510 Malcolm X Blvd.", 
    "website": ""
  }, 
  {
    "country": "United States", 
    "id": "c8443a69b69be667da38", 
    "latitude": 40.748746, 
    "locality": "New York", 
    "longitude": -73.976141, 
    "name": "Famous Chicken Place", 
    "phone": "2126871800", 
    "postal_code": "10016", 
    "region": "NY", 
    "street_address": "592 3rd Ave. # 1", 
    "website": "http://famouschickennyc.com/"
  }, 
  {
    "country": "United States", 
    "id": "25205fc11b8ba519484e", 
    "latitude": 40.7329499227693, 
    "locality": "New York", 
    "longitude": -73.9975547790527, 
    "name": "Grain Sushi", 
    "phone": "2122541888", 
    "postal_code": "10011", 
    "region": "NY", 
    "street_address": "23 W. 8th St.", 
    "website": ""
  }, 
  {
    "country": "United States", 
    "id": "8fcab42de90f5d711164", 
    "latitude": 40.7108, 
    "locality": "New York", 
    "longitude": -74.008797, 
    "name": "New Hing Wah NY", 
    "phone": "2123490515", 
    "postal_code": "", 
    "region": "NY", 
    "street_address": "150 Fulton St.", 
    "website": ""
  }, 
  {
    "country": "United States", 
    "id": "2fa57c393e57502cab9b", 
    "latitude": 40.8261985778809, 
    "locality": "New York", 
    "longitude": -73.9498748779297, 
    "name": "A-Z Pass Deli", 
    "phone": "", 
    "postal_code": "10031", 
    "region": "NY", 
    "street_address": "561 W. 145th St., New York, Ny 10031", 
    "website": ""
  }, 
  {
    "country": "United States", 
    "id": "fb32efb62532bbfe525d", 
    "latitude": 40.7732319, 
    "locality": "New York", 
    "longitude": -73.9262374, 
    "name": "Freedom Cafe", 
    "phone": "", 
    "postal_code": "", 
    "region": "NY", 
    "street_address": "Road 26", 
    "website": ""
  }, 
  {
    "country": "United States", 
    "id": "76dbea224a3020da31d9", 
    "latitude": 40.7451800404193, 
    "locality": "New York", 
    "longitude": -73.9999699694941, 
    "name": "Chez Ehrenberg", 
    "phone": "", 
    "postal_code": "10011", 
    "region": "NY", 
    "street_address": "", 
    "website": ""
  }, 
  {
    "country": "United States", 
    "id": "8d138573016de16fa554", 
    "latitude": 40.7536577647078, 
    "locality": "New York", 
    "longitude": -73.9984836563959, 
    "name": "SoHo Nightclub", 
    "phone": "", 
    "postal_code": "10010", 
    "region": "NY", 
    "street_address": "Fifth Ave. Center For Cnslng, 50 W. 23rd St. # 9, New York, Ny 10010-5271", 
    "website": ""
  }, 
  {
    "country": "United States", 
    "id": "d935eb27cd2cb3619c93", 
    "latitude": 40.722766, 
    "locality": "New York", 
    "longitude": -73.988844, 
    "name": "Robert Swingle Distinctive Catering", 
    "phone": "9146292939", 
    "postal_code": "", 
    "region": "NY", 
    "street_address": "205 Allen St.", 
    "website": ""
  }, 
  {
    "country": "United States", 
    "id": "b67c434f4d3c102d3f58", 
    "latitude": 40.753117, 
    "locality": "New York", 
    "longitude": -73.97483, 
    "name": "Alonti", 
    "phone": "2126818034", 
    "postal_code": "10017", 
    "region": "NY", 
    "street_address": "450 Lexington Ave.", 
    "website": ""
  }, 
  {
    "country": "United States", 
    "id": "4a31bba15afa865d098c", 
    "latitude": 40.7858003336251, 
    "locality": "New York", 
    "longitude": -73.9764401090523, 
    "name": "Soldier McGee Tavern", 
    "phone": "2125794299", 
    "postal_code": "10024", 
    "region": "NY", 
    "street_address": "480 Amsterdam Ave.", 
    "website": "http://smcgeetavernnyc.com"
  }, 
  {
    "country": "United States", 
    "id": "04d504ca001ac9a11692", 
    "latitude": 40.7916420269814, 
    "locality": "New York", 
    "longitude": -73.9648693799973, 
    "name": "Petros' Hot Dog Cart", 
    "phone": "", 
    "postal_code": "10025", 
    "region": "NY", 
    "street_address": "360.5 Central Park West", 
    "website": ""
  }, 
  {
    "country": "United States", 
    "id": "5e364fa206b1cf4de5a7", 
    "latitude": 40.7639475224509, 
    "locality": "New York", 
    "longitude": -73.9669183053717, 
    "name": "Ginza Japanese Restaurant", 
    "phone": "2128887898", 
    "postal_code": "10065", 
    "region": "NY", 
    "street_address": "800 Lexington Ave.", 
    "website": "http://ginzanyc.com"
  }, 
  {
    "country": "United States", 
    "id": "990beb7a071b8b410786", 
    "latitude": 40.750646, 
    "locality": "New York", 
    "longitude": -73.993982, 
    "name": "Big Kahuna Burger (That Hawaiian Joint)", 
    "phone": "", 
    "postal_code": "10119", 
    "region": "NY", 
    "street_address": "", 
    "website": ""
  }, 
  {
    "country": "United States", 
    "id": "92069db92983a425e675", 
    "latitude": 40.767598, 
    "locality": "New York", 
    "longitude": -73.959278, 
    "name": "Bottega", 
    "phone": "2122885282", 
    "postal_code": "10021", 
    "region": "NY", 
    "street_address": "1331 Second Ave.", 
    "website": "http://www.bottegany.com"
  }, 
  {
    "country": "United States", 
    "id": "722c5ea55e425edbcd87", 
    "latitude": 40.8155909133259, 
    "locality": "New York", 
    "longitude": -73.9571205153578, 
    "name": "Uni One Gourmet Deli", 
    "phone": "2122800215", 
    "postal_code": "10027", 
    "region": "NY", 
    "street_address": "3153 Broadway", 
    "website": ""
  }, 
  {
    "country": "United States", 
    "id": "df016fa0d85a34d4f578", 
    "latitude": 40.757133434277, 
    "locality": "New York", 
    "longitude": -73.9218340264566, 
    "name": "Cevabdzinica Sarajevo", 
    "phone": "7187529528", 
    "postal_code": "11101", 
    "region": "NY", 
    "street_address": "37-18 34th Ave.", 
    "website": ""
  }, 
  {
    "country": "United States", 
    "id": "18e2c1f8e35464b36158", 
    "latitude": 40.7359, 
    "locality": "New York", 
    "longitude": -73.98562, 
    "name": "Michael's Ice Cream Shoppe", 
    "phone": "9174721894", 
    "postal_code": "10003", 
    "region": "NY", 
    "street_address": "157 E. 18th St.", 
    "website": "http://www.icecreamweb.com"
  }, 
  {
    "country": "United States", 
    "id": "30fd2e879ace602341dd", 
    "latitude": 40.7538413623838, 
    "locality": "New York", 
    "longitude": -73.9835165873622, 
    "name": "Celsius at Bryant Park", 
    "phone": "2127929603", 
    "postal_code": "10018", 
    "region": "NY", 
    "street_address": "1065 Ave. Of The Americas", 
    "website": "http://celsiusnyc.com"
  }, 
  {
    "country": "United States", 
    "id": "fe67871aabb3714555a8", 
    "latitude": 40.734289, 
    "locality": "New York", 
    "longitude": -73.993401, 
    "name": "Di Fiore Marquet Cafe", 
    "phone": "2122299313", 
    "postal_code": "10003", 
    "region": "NY", 
    "street_address": "15 East 12th St.", 
    "website": ""
  }, 
  {
    "country": "United States", 
    "id": "f05edbff1cd0275fee09", 
    "latitude": 40.754933, 
    "locality": "New York", 
    "longitude": -73.971843, 
    "name": "Fresh Juice Bar", 
    "phone": "6467569928", 
    "postal_code": "10025", 
    "region": "NY", 
    "street_address": "48th St.", 
    "website": ""
  }, 
  {
    "country": "United States", 
    "id": "86c461cab8413d488b38", 
    "latitude": 40.75455096, 
    "locality": "New York", 
    "longitude": -73.97393, 
    "name": "La Cense Beef Truck", 
    "phone": "", 
    "postal_code": "", 
    "region": "NY", 
    "street_address": "47th St.", 
    "website": ""
  }, 
  {
    "country": "United States", 
    "id": "0f0bd622dc55bc50d26e", 
    "latitude": 40.756218, 
    "locality": "New York", 
    "longitude": -73.991033, 
    "name": "Hot Dog Cart Eighth Ave @39th St.", 
    "phone": "", 
    "postal_code": "10018", 
    "region": "NY", 
    "street_address": "", 
    "website": ""
  }, 
  {
    "country": "United States", 
    "id": "c08271f220ade0103937", 
    "latitude": 40.751631, 
    "locality": "New York", 
    "longitude": -73.978565, 
    "name": "Blue Violin", 
    "phone": "", 
    "postal_code": "10017", 
    "region": "NY", 
    "street_address": "", 
    "website": ""
  }, 
  {
    "country": "United States", 
    "id": "08b7d808353c3b897506", 
    "latitude": 40.67744, 
    "locality": "New York", 
    "longitude": -73.969093, 
    "name": "Plan B", 
    "phone": "3472402171", 
    "postal_code": "11238", 
    "region": "NY", 
    "street_address": "626 Vanderbilt Ave.", 
    "website": "http://planbbrooklyn.net/"
  }, 
  {
    "country": "United States", 
    "id": "8eca774a822a9b87af34", 
    "latitude": 40.772014, 
    "locality": "New York", 
    "longitude": -73.958949, 
    "name": "La Tour", 
    "phone": "2124727578", 
    "postal_code": "10021", 
    "region": "NY", 
    "street_address": "1319 3rd Ave.", 
    "website": "http://bistrolatour.com"
  }, 
  {
    "country": "United States", 
    "id": "0f6356eb154e7d1fc444", 
    "latitude": 40.7661765475089, 
    "locality": "New York", 
    "longitude": -73.9560449123383, 
    "name": "The Allie Way Sports Bar", 
    "phone": "9175120397", 
    "postal_code": "10021", 
    "region": "NY", 
    "street_address": "413 E. 70th St.", 
    "website": "http://www.thealliewayny.com"
  }, 
  {
    "country": "United States", 
    "id": "12ea6ae22694ea59ba58", 
    "latitude": 40.774324, 
    "locality": "New York", 
    "longitude": -73.963266, 
    "name": "Carlyle Restaurant", 
    "phone": "2125707192", 
    "postal_code": "10021", 
    "region": "NY", 
    "street_address": "35 East 76th St.", 
    "website": "http://www.thecarlyle.com"
  }, 
  {
    "country": "United States", 
    "id": "33400e7a6c0f55e00676", 
    "latitude": 40.745446, 
    "locality": "New York", 
    "longitude": -73.978562, 
    "name": "Smash Rooftop", 
    "phone": "", 
    "postal_code": "10016", 
    "region": "NY", 
    "street_address": "", 
    "website": ""
  }, 
  {
    "country": "United States", 
    "id": "6e8f92c1a76f5e00a3ce", 
    "latitude": 40.7794283017808, 
    "locality": "New York", 
    "longitude": -73.9504391360872, 
    "name": "The Brown Cup", 
    "phone": "2123693949", 
    "postal_code": "10128", 
    "region": "NY", 
    "street_address": "1707 2nd Ave.", 
    "website": ""
  }, 
  {
    "country": "United States", 
    "id": "fa1107016a766a8e227d", 
    "latitude": 40.729067, 
    "locality": "New York", 
    "longitude": -73.985178, 
    "name": "Uncle Louie G's", 
    "phone": "7183759725", 
    "postal_code": "10003", 
    "region": "NY", 
    "street_address": "49 1st Ave.", 
    "website": ""
  }, 
  {
    "country": "United States", 
    "id": "f98a0ed0011889890afb", 
    "latitude": 40.8501715, 
    "locality": "New York", 
    "longitude": -73.9360051, 
    "name": "McDonald's", 
    "phone": "2129239506", 
    "postal_code": "10033", 
    "region": "NY", 
    "street_address": "4259 Broadway", 
    "website": "http://www.mcstate.com/2970"
  }, 
  {
    "country": "United States", 
    "id": "fd0900d26cad16aee52e", 
    "latitude": 40.73506, 
    "locality": "New York", 
    "longitude": -73.985586, 
    "name": "Mumbles", 
    "phone": "2124776066", 
    "postal_code": "10003", 
    "region": "NY", 
    "street_address": "179 Third Ave.", 
    "website": "http://www.mumblesnyc.com"
  }, 
  {
    "country": "United States", 
    "id": "f5d2908d82bb35745bf4", 
    "latitude": 40.7575975799171, 
    "locality": "New York", 
    "longitude": -73.9665567086124, 
    "name": "Taksim Restaurant", 
    "phone": "2124213004", 
    "postal_code": "10022", 
    "region": "NY", 
    "street_address": "1030 2nd Ave.", 
    "website": "http://taksim.us"
  }, 
  {
    "country": "United States", 
    "id": "ee5fb286340bded06e9b", 
    "latitude": 40.764964, 
    "locality": "New York", 
    "longitude": -73.9872, 
    "name": "La Silhouette", 
    "phone": "2125812400", 
    "postal_code": "10019", 
    "region": "NY", 
    "street_address": "362 West 53rd St.", 
    "website": "http://la-silhouettenyc.com"
  }, 
  {
    "country": "United States", 
    "id": "4c6ded6b45cede01a4fa", 
    "latitude": 40.743595, 
    "locality": "New York", 
    "longitude": -73.986842, 
    "name": "Happy Valley", 
    "phone": "2124812628", 
    "postal_code": "10016", 
    "region": "NY", 
    "street_address": "14 East 27th St.", 
    "website": "http://www.happyvalleynyc.com"
  }, 
  {
    "country": "United States", 
    "id": "846098ea82d6ff158d63", 
    "latitude": 40.783192, 
    "locality": "New York", 
    "longitude": -73.980744, 
    "name": "La Caridad 78", 
    "phone": "2128742780", 
    "postal_code": "10024", 
    "region": "NY", 
    "street_address": "2199 Broadway", 
    "website": "http://www.lacaridad78.com/"
  }, 
  {
    "country": "United States", 
    "id": "9882ca3b8a3de680e574", 
    "latitude": 40.742567, 
    "locality": "New York", 
    "longitude": -73.987145, 
    "name": "The One Club", 
    "phone": "2129791900", 
    "postal_code": "10010", 
    "region": "NY", 
    "street_address": "21 E. 26 St., 5th Fl", 
    "website": ""
  }, 
  {
    "country": "United States", 
    "id": "9738ec1974a3cbeb07a8", 
    "latitude": 40.733019, 
    "locality": "New York", 
    "longitude": -73.976458, 
    "name": "Book Club", 
    "phone": "", 
    "postal_code": "", 
    "region": "NY", 
    "street_address": "", 
    "website": ""
  }, 
  {
    "country": "United States", 
    "id": "c8f0a528c2384dd60dee", 
    "latitude": 40.702275, 
    "locality": "New York", 
    "longitude": -73.820049, 
    "name": "Matty's Gourmet Deli Plus Inc", 
    "phone": "7187390330", 
    "postal_code": "11418", 
    "region": "NY", 
    "street_address": "132-7 Jamaica Ave.", 
    "website": ""
  }, 
  {
    "country": "United States", 
    "id": "aa8c75276d4433638010", 
    "latitude": 40.87745, 
    "locality": "New York", 
    "longitude": -73.83898, 
    "name": "Vegans Delight", 
    "phone": "7186534140", 
    "postal_code": "10469", 
    "region": "NY", 
    "street_address": "3565 C Boston Rd.", 
    "website": ""
  }, 
  {
    "country": "United States", 
    "id": "158c0ad70bff717ba12a", 
    "latitude": 40.746945, 
    "locality": "New York", 
    "longitude": -74.006082, 
    "name": "El Flamingo Club", 
    "phone": "2122432121", 
    "postal_code": "", 
    "region": "NY", 
    "street_address": "547 W. 21st St.", 
    "website": "http://thedonkeyshow.com"
  }, 
  {
    "country": "United States", 
    "id": "3300c0ad8191225b2a63", 
    "latitude": 40.783731, 
    "locality": "New York", 
    "longitude": -73.977878, 
    "name": "La Grolla Risoranti", 
    "phone": "2124960890", 
    "postal_code": "10024", 
    "region": "NY", 
    "street_address": "413 Amsterdam Ave.", 
    "website": "http://lagrolla.us"
  }, 
  {
    "country": "United States", 
    "id": "0d20212c4ef3ea46460e", 
    "latitude": 40.715494, 
    "locality": "New York", 
    "longitude": -74.005368, 
    "name": "Atomic Wings", 
    "phone": "2125717667", 
    "postal_code": "10007", 
    "region": "NY", 
    "street_address": "311 Broadway", 
    "website": "http://atomicwings.com/"
  }, 
  {
    "country": "United States", 
    "id": "785d75ebd777f90b3f9d", 
    "latitude": 40.7298266228693, 
    "locality": "New York", 
    "longitude": -74.0007287264962, 
    "name": "Alibi", 
    "phone": "2122549996", 
    "postal_code": "10012", 
    "region": "NY", 
    "street_address": "116 Macdougal St.", 
    "website": "http://alibiny.com/"
  }, 
  {
    "country": "United States", 
    "id": "8af0190a53593d7c3ffd", 
    "latitude": 40.720367, 
    "locality": "New York", 
    "longitude": -74.006055, 
    "name": "New York Restaurant", 
    "phone": "2129662391", 
    "postal_code": "10013", 
    "region": "NY", 
    "street_address": "11 Beach St. # 3", 
    "website": "http://www.taxi.ca"
  }, 
  {
    "country": "United States", 
    "id": "1c3dd2aa03dd6686f777", 
    "latitude": 40.759932, 
    "locality": "New York", 
    "longitude": -73.991867, 
    "name": "L'Allegria New York City", 
    "phone": "2122656777", 
    "postal_code": "10036", 
    "region": "NY", 
    "street_address": "623 9th Ave.", 
    "website": "http://www.lallegriarestaurant.com"
  }, 
  {
    "country": "United States", 
    "id": "db3a08af803f1c54e595", 
    "latitude": 40.739556, 
    "locality": "New York", 
    "longitude": -73.995439, 
    "name": "2 Brothers Pizza", 
    "phone": "2122068656", 
    "postal_code": "10011", 
    "region": "NY", 
    "street_address": "601 6th Ave.", 
    "website": ""
  }, 
  {
    "country": "United States", 
    "id": "c7a1b81bcfaee1f81707", 
    "latitude": 40.748145, 
    "locality": "New York", 
    "longitude": -73.984721, 
    "name": "China Us", 
    "phone": "2125320328", 
    "postal_code": "10016", 
    "region": "NY", 
    "street_address": "347 5th Ave. # 1108", 
    "website": ""
  }, 
  {
    "country": "United States", 
    "id": "038cc2a9246264afd5a1", 
    "latitude": 40.731029, 
    "locality": "New York", 
    "longitude": -73.983017, 
    "name": "2 Bros. Pizza", 
    "phone": "2127770600", 
    "postal_code": "10003", 
    "region": "NY", 
    "street_address": "32 Saint Marks Pl.", 
    "website": "http://www.2brospizza.com/"
  }, 
  {
    "country": "United States", 
    "id": "857294066d70cf4edafd", 
    "latitude": 40.740935, 
    "locality": "New York", 
    "longitude": -73.990799, 
    "name": "Sagaponack Bar and Grill", 
    "phone": "2122292226", 
    "postal_code": "10010", 
    "region": "NY", 
    "street_address": "4 West 22nd St.", 
    "website": "http://www.sagaponacknyc.com"
  }, 
  {
    "country": "United States", 
    "id": "187867f8402c12a64687", 
    "latitude": 40.728398, 
    "locality": "New York", 
    "longitude": -74.005346, 
    "name": "Off Track Betting", 
    "phone": "2122215200", 
    "postal_code": "", 
    "region": "NY", 
    "street_address": "200 Varick St.", 
    "website": ""
  }, 
  {
    "country": "United States", 
    "id": "4dd1671b821a7a469830", 
    "latitude": 40.805748, 
    "locality": "New York", 
    "longitude": -73.962581, 
    "name": "\uf48b\uf48a Pharmacie de la Pixie \uf489\uf6ac", 
    "phone": "", 
    "postal_code": "10025", 
    "region": "NY", 
    "street_address": "", 
    "website": ""
  }, 
  {
    "country": "United States", 
    "id": "11e71388681873aabdf8", 
    "latitude": 40.7291879636598, 
    "locality": "New York", 
    "longitude": -74.0012611587691, 
    "name": "The Coffee Bean & Tea Leaf", 
    "phone": "2126730050", 
    "postal_code": "10012", 
    "region": "NY", 
    "street_address": "189 Bleecker St.", 
    "website": "http://www.facebook.com/coffeebeanny"
  }, 
  {
    "country": "United States", 
    "id": "a62d6e8ec0c219d10a34", 
    "latitude": 40.7687119251485, 
    "locality": "New York", 
    "longitude": -73.9925440275803, 
    "name": "Westside Market Place", 
    "phone": "2125815614", 
    "postal_code": "10019", 
    "region": "NY", 
    "street_address": "790 11th Ave.", 
    "website": ""
  }, 
  {
    "country": "United States", 
    "id": "503f4d16ab1374ee3cf9", 
    "latitude": 40.716458, 
    "locality": "New York", 
    "longitude": -73.990221, 
    "name": "Michaels Seafood", 
    "phone": "2124316256", 
    "postal_code": "", 
    "region": "NY", 
    "street_address": "49 Ludlow St.", 
    "website": ""
  }, 
  {
    "country": "United States", 
    "id": "b871241139b23ab8c809", 
    "latitude": 40.756167, 
    "locality": "New York", 
    "longitude": -73.972246, 
    "name": "N Y Luncheonette", 
    "phone": "2128380165", 
    "postal_code": "10022", 
    "region": "NY", 
    "street_address": "135 E. 50th St.", 
    "website": ""
  }, 
  {
    "country": "United States", 
    "id": "756b04702a434cde6426", 
    "latitude": 40.777509, 
    "locality": "New York", 
    "longitude": -73.950454, 
    "name": "Tal Bagels", 
    "phone": "2124276811", 
    "postal_code": "10028", 
    "region": "NY", 
    "street_address": "333 East 86th St. #1", 
    "website": "http://www.talbagelsny.com/"
  }, 
  {
    "country": "United States", 
    "id": "c905cd2fc8ecefe3843a", 
    "latitude": 40.749076, 
    "locality": "New York", 
    "longitude": -73.982288, 
    "name": "Euro RSCG Worldwide PR Healthcare Team Room", 
    "phone": "", 
    "postal_code": "10016", 
    "region": "NY", 
    "street_address": "200 Madison Ave.", 
    "website": ""
  }, 
  {
    "country": "United States", 
    "id": "f7c5b1ce21f5dc970b8d", 
    "latitude": 40.7503130678784, 
    "locality": "New York", 
    "longitude": -73.9882850646973, 
    "name": "Cucina & Co.", 
    "phone": "2128682388", 
    "postal_code": "10001", 
    "region": "NY", 
    "street_address": "151 W. 34th St.", 
    "website": "http://rapatina.com"
  }, 
  {
    "country": "United States", 
    "id": "3c579ac410c6b1a0dab5", 
    "latitude": 40.751312, 
    "locality": "New York", 
    "longitude": -74.006756, 
    "name": "Onnuly Corporation", 
    "phone": "2123528548", 
    "postal_code": "10001", 
    "region": "NY", 
    "street_address": "601 W. 26th St. # 890", 
    "website": ""
  }, 
  {
    "country": "United States", 
    "id": "04b0e1af95f4d1dea9b5", 
    "latitude": 40.7443714155458, 
    "locality": "New York", 
    "longitude": -73.9830815792084, 
    "name": "Eata Pita", 
    "phone": "2127257482", 
    "postal_code": "10016", 
    "region": "NY", 
    "street_address": "441 Park Ave. South", 
    "website": "http://eatapitanewyork.com/"
  }, 
  {
    "country": "United States", 
    "id": "86ef25630547373f2ae3", 
    "latitude": 40.7564383838461, 
    "locality": "New York", 
    "longitude": -73.9767787299247, 
    "name": "NY SportsMed & Physical Therapy", 
    "phone": "", 
    "postal_code": "10017", 
    "region": "NY", 
    "street_address": "18 E. 48th St., Suite 802", 
    "website": "http://www.facebook.com/nysportsmed?ref=hl"
  }, 
  {
    "country": "United States", 
    "id": "3c53548d2e795c26ec7c", 
    "latitude": 40.727822, 
    "locality": "New York", 
    "longitude": -73.979514, 
    "name": "Fu Sushi", 
    "phone": "2123751426", 
    "postal_code": "10009", 
    "region": "NY", 
    "street_address": "182 Ave. B", 
    "website": "http://fusushi.com"
  }, 
  {
    "country": "United States", 
    "id": "60e8e10c921c00fffea1", 
    "latitude": 40.711513, 
    "locality": "New York", 
    "longitude": -74.016295, 
    "name": "Winter's House Of Rock", 
    "phone": "", 
    "postal_code": "10280", 
    "region": "NY", 
    "street_address": "395 S. End Ave.", 
    "website": ""
  }
]